Item Label,Image,Author,Submission DateTime,Year,Date,Instance Of Type Label,Longitude,Latitude,Inception,Admin Entity Label,Historic County Label
Glenorchy Parish Church,http://commons.wikimedia.org/wiki/Special:FilePath/Glenorchy%20church%20and%20graveyard.jpg,Geograph Update Bot,2017-09-10 17:34:57,2017,10,church building,-4.97108,56.4042,1811-01-01T00:00:00Z,Argyll and Bute,Argyll
St Columba's Cathedral,http://commons.wikimedia.org/wiki/Special:FilePath/St%20Columbas%20Cathedral%2C%20UK.jpg,File Upload Bot (Magnus Manske),2008-09-11 15:24:41,2008,11,cathedral,-5.47883,56.4195,1952-01-01T00:00:00Z,Argyll and Bute; Oban,Argyll
Seton Collegiate Church,http://commons.wikimedia.org/wiki/Special:FilePath/Seton%20Collegiate%20Church%2C%20near%20Tranent%2001.jpg,Mainlymazza,2019-09-25 19:46:50,2019,25,church building,-2.9335505,55.965277,N/A,East Lothian,East Lothian
St Michael and All Angels’ Church,http://commons.wikimedia.org/wiki/Special:FilePath/Helensburgh%20St%20Michael%20and%20All%20Angels%20Church%20Exterior.jpg,AlasdairW,2016-09-26 22:51:36,2016,26,church building,-4.74016,56.005,1868-01-01T00:00:00Z,Argyll and Bute; Helensburgh,Dunbartonshire
"St Vincent Street Church, Glasgow",http://commons.wikimedia.org/wiki/Special:FilePath/StVincentStreetChurchGlasgow.jpg,Verne Equinox,2009-09-07 20:50:12,2009,7,parish church,-4.265475121,55.862252835,1859-01-01T00:00:00Z,Glasgow City,Lanarkshire
Political Martyrs' Monument,http://commons.wikimedia.org/wiki/Special:FilePath/Martyr%27s%20Monument.jpg,GarDav,2017-09-18 16:03:32,2017,18,monument,-3.18584,55.9534,N/A,City of Edinburgh,Midlothian
St Columba's Cathedral,http://commons.wikimedia.org/wiki/Special:FilePath/St%20Columbas%20Cathedral%2C%20UK.jpg,File Upload Bot (Magnus Manske),2008-09-11 15:24:41,2008,11,cathedral,-5.47883,56.4195,1935-01-01T00:00:00Z,Argyll and Bute; Oban,Argyll
"Linlithgow, The Cross, Town House",http://commons.wikimedia.org/wiki/Special:FilePath/Linlithgow%2C%20The%20Cross%2C%20Town%20House%20-%2020170923144559.jpg,Ammienoot,2017-09-27 22:21:14,2017,27,townhouse,-3.60056,55.9774,N/A,West Lothian,West Lothian
Kelvingrove Art Gallery and Museum,http://commons.wikimedia.org/wiki/Special:FilePath/Kelvingrove%20Art%20Gallery%20and%20Museum%20-%20exterior.jpg,Stinglehammer,2017-09-10 23:23:18,2017,10,art museum; local authority museum,-4.290636382,55.868608412,1901-01-01T00:00:00Z,Glasgow City,Lanarkshire
"Cathedral Square, Bridge Of Sighs, Superintendent's House",http://commons.wikimedia.org/wiki/Special:FilePath/Cathedral%20Square%2C%20Bridge%20Of%20Sighs%2C%20Superintendent%27s%20House.jpg,Stinglehammer,2017-09-30 12:19:25,2017,30,caretaker's house,-4.23476,55.8623,N/A,Glasgow City,Lanarkshire
Skipness Castle,http://commons.wikimedia.org/wiki/Special:FilePath/Skipness%20castle%20IW.jpg,Iwoelbern,2007-09-13 21:08:09,2007,13,tower house,-5.3364,55.768,N/A,Argyll and Bute,Argyll
Oxenfoord Castle,http://commons.wikimedia.org/wiki/Special:FilePath/Oxenfoord%20Castle%2001.jpg,Sir Gawain,2014-09-14 07:01:13,2014,14,castle,-2.97944325,55.879470445,N/A,Midlothian,Midlothian
Relief Land,http://commons.wikimedia.org/wiki/Special:FilePath/Relief%20Land%2C%20Inveraray%20-%20view%20from%20N.jpg,ArchHist,2018-09-30 16:25:17,2018,30,building,-5.07352,56.2296,N/A,Argyll and Bute,Argyll
Holyrood Palace,http://commons.wikimedia.org/wiki/Special:FilePath/Palace%20of%20Holyroodhouse%2C%20Edinburgh.jpg,Kim Traynor,2011-09-23 10:10:06,2011,23,palace; official residence; country house,-3.17229,55.9527,N/A,City of Edinburgh,Midlothian
"Tivoli Theatre, Aberdeen",http://commons.wikimedia.org/wiki/Special:FilePath/The%20Tivoil%2C%20Guild%20St%2C%20Aberdeen%2C%20Scotland.JPG,Ragazzi99,2013-09-21 11:03:51,2013,21,theatre,-2.09766,57.1451,1872-01-01T00:00:00Z,Aberdeen City,Aberdeenshire
voco Grand Central Hotel,http://commons.wikimedia.org/wiki/Special:FilePath/Gordon%20Street%2C%20Central%20Station%2C%20Central%20Hotel%2001.jpg,Stinglehammer,2017-09-19 00:29:19,2017,19,railway hotel,-4.25871,55.8597,N/A,Glasgow City,Lanarkshire
Scottish National Gallery of Modern Art,http://commons.wikimedia.org/wiki/Special:FilePath/Modern%20One%2C%20Scottish%20National%20Gallery%20of%20Modern%20Art%2C%20Belford%20Road%2C%20Edinburgh.jpg,Grousebeater2,2018-09-28 22:16:21,2018,28,art museum; national museum,-3.22746,55.9506,1960-01-01T00:00:00Z,City of Edinburgh,Midlothian
Union Bridge,http://commons.wikimedia.org/wiki/Special:FilePath/Union%20Chain%20Bridge%20between%20England%20and%20Scotland%2C%202019.jpg,DeFacto,2020-09-01 20:53:12,2020,1,suspension bridge; road bridge,-2.107210826,55.752491622,1820-01-01T00:00:00Z,Scottish Borders; Horncliffe; Hutton,Berwickshire
"St Margaret of Scotland, Chapel and Convent Wing, Aberdeen",http://commons.wikimedia.org/wiki/Special:FilePath/St%20Margaret%20of%20Scotland%2C%20Chapel%20and%20Convent%20Wing%2C%20Aberdeen.jpg,Watty62,2020-09-23 14:48:39,2020,23,chapel,-2.099895575,57.157490589,N/A,Aberdeen City,Aberdeenshire
Falkirk Old Parish Church,http://commons.wikimedia.org/wiki/Special:FilePath/Falkirk%20Old%20Parish%20Church.jpg,Geograph Update Bot,2017-09-09 21:23:53,2017,9,church building,-3.785833,56.000278,1811-01-01T00:00:00Z,Falkirk,Stirlingshire
Levenford House,http://commons.wikimedia.org/wiki/Special:FilePath/Levenford%20House%2C%20Dumbarton.jpg,Geograph Update Bot,2017-09-12 19:30:41,2017,12,house; library building; mansion,-4.57911,55.9447,N/A,West Dunbartonshire,Dunbartonshire
Belmont House,http://commons.wikimedia.org/wiki/Special:FilePath/Belmont%20House%2C%20Shetland.jpg,Geograph Update Bot,2017-09-11 17:52:27,2017,11,country house,-0.967403,60.6876,1775-01-01T00:00:00Z,Shetland Islands,Shetland Islands
Udny Castle,http://commons.wikimedia.org/wiki/Special:FilePath/Udny%20Castle%2003.jpg,Sagaciousphil,2013-09-08 16:49:47,2013,8,tower house; country house,-2.1973,57.3315,N/A,Aberdeenshire,Aberdeenshire
Birnie Kirk,http://commons.wikimedia.org/wiki/Special:FilePath/Birnie%20Church.jpg,Chh bck,2018-09-21 15:47:11,2018,21,church building,-3.32968,57.6114,1140-01-01T00:00:00Z,Moray,Morayshire
"Kelvinside Hillhead Parish Church, Glasgow",http://commons.wikimedia.org/wiki/Special:FilePath/Kelvinside%20Hillhead%20Parish%20Church.jpg,LornaMCampbell,2017-09-08 20:47:28,2017,8,church building,-4.2932,55.8775,1876-10-08T00:00:00Z,Glasgow City,Lanarkshire
Bede House,http://commons.wikimedia.org/wiki/Special:FilePath/Bede%20House%202010%20a.jpg,Nick,2014-09-05 21:18:58,2014,5,house,-2.10163,57.1676,N/A,Aberdeen City,Aberdeenshire
West Port House,http://commons.wikimedia.org/wiki/Special:FilePath/Linlithgow%2C%20297-299%20High%20Street%2C%20West%20Port%20House.jpg,Ammienoot,2018-09-16 22:09:56,2018,16,architectural structure,-3.60956,55.9757,N/A,West Lothian,West Lothian
"St James Church, Kilmacolm",http://commons.wikimedia.org/wiki/Special:FilePath/St%20Columbas%20Kilmacolm.jpg,File Upload Bot (Magnus Manske),2008-09-25 13:15:04,2008,25,church building,-4.626968873,55.892949217,1903-01-01T00:00:00Z,Inverclyde,Renfrewshire
Anniesland Court,http://commons.wikimedia.org/wiki/Special:FilePath/Anniesland%20court%20%28perspective%20filter%20etc%29.jpg,Ubcule,2023-09-12 20:15:11,2023,12,skyscraper,-4.32511,55.891,1968-01-01T00:00:00Z,Glasgow City,Renfrewshire
Glasgow School of Art,http://commons.wikimedia.org/wiki/Special:FilePath/Glasgow%20School%20of%20Art%20-%20September%202017.jpg,Stinglehammer,2017-09-17 11:02:21,2017,17,university; art school; university museum,-4.263746379,55.866050411,1845-01-01T00:00:00Z,Glasgow City,Lanarkshire
"Edinburgh, 18 Regent Terrace",http://commons.wikimedia.org/wiki/Special:FilePath/18%20Regent%20Terrace%201.jpg,Spillerjzy,2017-09-23 15:41:30,2017,23,terrace house,-3.17629,55.955,N/A,City of Edinburgh,Midlothian
People's Palace,http://commons.wikimedia.org/wiki/Special:FilePath/People%27s%20Palace%20and%20Winter%20Gardens%20in%20Glasgow%20Green.jpg,Mmhkk,2017-09-30 21:47:37,2017,30,museum; greenhouse; tourist attraction; local authority museum,-4.23741624,55.851208554,1898-01-01T00:00:00Z,Glasgow City,Lanarkshire
Scotland Street School Museum,http://commons.wikimedia.org/wiki/Special:FilePath/Scotland%20Street%20School%20infants%20entrance%20DSCN8975.jpg,AlasdairW,2017-09-26 22:45:12,2017,26,museum; school building; education museum,-4.27369,55.8494,1906-01-01T00:00:00Z,Glasgow City,Renfrewshire
"St Michael's Parish Church, Linlithgow",http://commons.wikimedia.org/wiki/Special:FilePath/Linlithgow%2C%20St%20Michael%27s%20Church.jpg,Ammienoot,2018-09-16 22:23:11,2018,16,church building,-3.60033,55.9781,N/A,West Lothian,West Lothian
Mavisbank House,http://commons.wikimedia.org/wiki/Special:FilePath/Mavisbank%20House%20-%20principal%20elevation.jpg,ArchHist,2018-09-01 11:45:15,2018,1,house,-3.137311165,55.873548234,N/A,Midlothian,Midlothian
Dugald Stewart Monument,http://commons.wikimedia.org/wiki/Special:FilePath/Dugald%20Stewart%20Monument%20-%2005.jpg,Kadellar,2014-09-19 11:46:08,2014,19,monument,-3.18448,55.9545,N/A,City of Edinburgh,Midlothian
Dunmore Pineapple,http://commons.wikimedia.org/wiki/Special:FilePath/Dunmore%20Pineapple.jpg,Davidw82,2013-09-01 22:45:58,2013,1,folly; summer house,-3.7867,56.07671,N/A,Falkirk,Stirlingshire
Canongate Tolbooth,http://commons.wikimedia.org/wiki/Special:FilePath/Canongate%20Tolbooth%20at%20Sunset.jpg,GarDav,2017-09-18 16:05:00,2017,18,tolbooth,-3.18,55.9515,N/A,City of Edinburgh,Midlothian
"Kilmaurs, Tour, Dovecot",http://commons.wikimedia.org/wiki/Special:FilePath/Kirkfauld%20dovecote%20at%20Saint%20Maurs-Glencairn%20Church%2C%20Kilmaurs.JPG,Rosser1954,2014-09-24 21:05:34,2014,24,dovecote,-4.52128,55.6336,N/A,East Ayrshire,Ayrshire
"Rhu, Rhu Road Lower, Ardencaple Hotel Including Former Stables",http://commons.wikimedia.org/wiki/Special:FilePath/DSCN3856%20Ardencaple%20Hotel.jpg,AlasdairW,2019-09-16 22:18:24,2019,16,hotel; pub; cottage,-4.76441,56.0135,N/A,Argyll and Bute,Dunbartonshire
Mertoun House,http://commons.wikimedia.org/wiki/Special:FilePath/Mertoun%20House.jpg,Geograph Update Bot,2017-09-10 12:17:33,2017,10,garden; country house,-2.6040158,55.579208214,N/A,Scottish Borders,Berwickshire
Eden Court Theatre,http://commons.wikimedia.org/wiki/Special:FilePath/Eden%20Court%20Theatre%20%284860116209%29.jpg,Rotatebot,2013-09-04 07:48:50,2013,4,theatre,-4.230820485,57.473078523,1976-01-01T00:00:00Z,Inverness; Highland,Inverness-shire
Rosslyn Chapel,http://commons.wikimedia.org/wiki/Special:FilePath/Rosslyn%20Chapel1.jpg,Tallulahbang,2017-09-03 17:40:39,2017,3,Anglican church building,-3.1599,55.8554,1446-01-01T00:00:00Z,Midlothian,Midlothian
McEwan Hall,http://commons.wikimedia.org/wiki/Special:FilePath/DSCN4533%20McEwan%20Hall.jpg,AlasdairW,2019-09-29 22:13:01,2019,29,hall,-3.189676096,55.945314795,1897-01-01T00:00:00Z,City of Edinburgh,Midlothian
Glasgow Central station,http://commons.wikimedia.org/wiki/Special:FilePath/Central%20Station%20from%20The%20Lighthouse%20DSCN8987.jpg,AlasdairW,2017-09-30 21:12:00,2017,30,dead-end railway station; railway station,-4.25822,55.8589,1879-01-01T00:00:00Z,Glasgow City,Lanarkshire
Advocates Library,http://commons.wikimedia.org/wiki/Special:FilePath/Edinburgh%20Advocate%27s%20Library%202.JPG,AlasdairW,2014-09-27 23:23:50,2014,27,law library,-3.19158,55.9489,N/A,Edinburgh,Midlothian
Craigievar Castle,http://commons.wikimedia.org/wiki/Special:FilePath/Craigievar-Castle.jpg,Anaisc30,2017-09-01 12:33:08,2017,1,castle; museum; tower house,-2.718117701,57.174150605,1626-01-01T00:00:00Z,Aberdeenshire,Aberdeenshire
King's Theatre,http://commons.wikimedia.org/wiki/Special:FilePath/King%27s%20Theatre%2C%20Glasgow%2001.jpg,Stinglehammer,2017-09-17 13:30:08,2017,17,theatre,-4.268741269,55.865095597,1904-09-12T00:00:00Z,Glasgow City,Lanarkshire
Stonehaven Tolbooth,http://commons.wikimedia.org/wiki/Special:FilePath/Old%20Tolbooth%20Museum%2C%20Old%20Pier%2C%20Stonehaven.jpg,Panama1958,2019-09-17 20:20:48,2019,17,museum; tolbooth,-2.202173381,56.960761871,N/A,Aberdeenshire; Stonehaven,Kincardineshire
"Bute, Rothesay, Townhead, High Kirk Mausoleum",http://commons.wikimedia.org/wiki/Special:FilePath/High%20Kirk%20Mausoleum%2C%20Rothesay-geograph-5373084.jpg,Geograph Update Bot,2017-09-21 20:55:47,2017,21,mausoleum,-5.05774,55.8287,N/A,Argyll and Bute,Buteshire
"Edinburgh, 17 Carlton Terrace",http://commons.wikimedia.org/wiki/Special:FilePath/Edinburgh%2C%2017%20Carlton%20Terrace.jpg,Wilmm,2017-09-24 20:20:55,2017,24,terrace house,-3.17469,55.9566,N/A,City of Edinburgh,Midlothian
Barscobe Castle,http://commons.wikimedia.org/wiki/Special:FilePath/Barscobe%20Castle%201.jpg,JMiall,2011-09-12 20:59:33,2011,12,tower house,-4.10226609,55.102003971,N/A,Dumfries and Galloway,Kirkcudbrightshire
Greyfriars Kirk,http://commons.wikimedia.org/wiki/Special:FilePath/Greyfriars%20Kirk%20-%2001.jpg,Kadellar,2014-09-01 16:28:55,2014,1,church building; Scottish civil parish,-3.1922,55.9466,N/A,City of Edinburgh,Midlothian
Old Breachacha Castle,http://commons.wikimedia.org/wiki/Special:FilePath/Breachacha%20Castle%20%28geograph%202419813%29.jpg,File Upload Bot (Magnus Manske),2013-09-09 23:24:20,2013,9,castle; tower house,-6.628,56.5908,1500-01-01T00:00:00Z,Argyll and Bute,Argyll
St Matthew's Church,http://commons.wikimedia.org/wiki/Special:FilePath/St%20Matthew%27s%20Church%20-%20Paisley%20-%20Exterior%20-%20NorthEast.jpg,Colin,2013-09-14 12:54:53,2013,14,church building,-4.42122,55.8423,N/A,Renfrewshire,Renfrewshire
Fearn Abbey,http://commons.wikimedia.org/wiki/Special:FilePath/Fearn%20Abbey%2020090615%20from%20south%20east.jpg,Otter,2009-09-13 08:29:10,2009,13,monastery,-3.956136111,57.770080555,1201-01-01T00:00:00Z,Highland,Ross-shire
Fettes College,http://commons.wikimedia.org/wiki/Special:FilePath/Fettes%20College%20Edinburgh.jpg,Pawel Gieralt,2017-09-30 21:13:44,2017,30,boarding school,-3.22744683,55.96397556,1870-01-01T00:00:00Z,City of Edinburgh,Midlothian
Tower of Hallbar,http://commons.wikimedia.org/wiki/Special:FilePath/HallbarTower5.jpg,Supergolden,2006-09-11 12:06:19,2006,11,castle; tower house,-3.848576482,55.703679176,N/A,South Lanarkshire,Lanarkshire
Craig House,http://commons.wikimedia.org/wiki/Special:FilePath/Old%20Craig%20House%2C%20Craiglockhart%20Edinburgh.jpg,Kim Traynor,2011-09-21 08:45:30,2011,21,building; former hospital,-3.226388146,55.922904273,N/A,City of Edinburgh,Midlothian
"Alva Churchyard, Johnstone Mausoleum",http://commons.wikimedia.org/wiki/Special:FilePath/Alva%20Johnstone%20Mausoleum.jpg,Valerie Forsyth,2020-09-17 10:00:16,2020,17,mausoleum,-3.79231,56.1556,N/A,Clackmannanshire,Clackmannanshire
"Linlithgow, 5 The Cross, Cross House",http://commons.wikimedia.org/wiki/Special:FilePath/Linlithgow%2C%205%20The%20Cross%2C%20Cross%20House%20-%2020170923144533.jpg,Ammienoot,2017-09-27 22:19:51,2017,27,house,-3.60114,55.9773,N/A,West Lothian,West Lothian
Dunfermline City Chambers,http://commons.wikimedia.org/wiki/Special:FilePath/Dunfermline%2C%203%20Bridge%20Street%2C%20City%20Chambers.jpg,Delphine Dallison,2018-09-26 11:44:36,2018,26,town hall,-3.46413,56.0708,N/A,Fife,Fife
Castle Cary Castle,http://commons.wikimedia.org/wiki/Special:FilePath/Castlecary%20Castle.jpg,Geograph Update Bot,2017-09-15 20:57:59,2017,15,tower house; archaeological site,-3.945928411,55.975338166,N/A,Falkirk,Stirlingshire
Gean House,http://commons.wikimedia.org/wiki/Special:FilePath/Gean%20House.jpg,Spikey Island,2008-09-02 18:48:50,2008,2,house,-3.81181,56.1254,N/A,Clackmannanshire,Clackmannanshire
Newton Castle,http://commons.wikimedia.org/wiki/Special:FilePath/Newton%20Castle%20from%20SW.jpg,Odysseus1479,2013-09-09 01:14:01,2013,9,tower house,-3.35041,56.592,N/A,Perth and Kinross; Blairgowrie and Rattray,Perthshire
St Andrew's and St George's West Church,http://commons.wikimedia.org/wiki/Special:FilePath/St%20George%27s%20and%20St%20Andrew%27s%20Church%2C%20Edinburgh.jpg,Hebrides,2021-09-03 19:08:09,2021,3,church building,-3.195888147,55.954123316,N/A,City of Edinburgh,Midlothian
Dalmoak House,http://commons.wikimedia.org/wiki/Special:FilePath/Dalmoak%20House.jpg,Geograph Update Bot,2017-09-15 21:29:28,2017,15,villa,-4.5909,55.9594,1866-01-01T00:00:00Z,West Dunbartonshire,Dunbartonshire
Red Towers,http://commons.wikimedia.org/wiki/Special:FilePath/Red%20Towers%20Helensburgh%20DSCN1959.jpg,AlasdairW,2018-09-22 22:37:29,2018,22,house,-4.72911,56.0149,N/A,Argyll and Bute; Helensburgh,Dunbartonshire
"Cathedral Square, Bridge Of Sighs, Gates And Gate Piers",http://commons.wikimedia.org/wiki/Special:FilePath/Glagow%20Cathedral%20Square%20Gates%20Piers%20by%20Marcok%202018-08-23%20f03.jpg,Marcok,2018-09-21 21:06:36,2018,21,architectural structure,-4.23561,55.8624,N/A,Glasgow City,Lanarkshire
"Hippodrome Cinema, Bo'ness",http://commons.wikimedia.org/wiki/Special:FilePath/Bo%27ness%20Hippodrome.jpg,Kim Traynor,2011-09-18 01:22:52,2011,18,theatre; movie theater,-3.60825,56.01755556,1912-01-01T00:00:00Z,Falkirk; Bo'ness,West Lothian
Royal Museum of Scotland,http://commons.wikimedia.org/wiki/Special:FilePath/National%20Museum%20of%20Scotland%20%28Back%29.jpg,Spillerjzy,2017-09-16 12:53:53,2017,16,museum,-3.189340389,55.94689948,1888-01-01T00:00:00Z,City of Edinburgh,Midlothian
Wemyss Bay railway station,http://commons.wikimedia.org/wiki/Special:FilePath/Wemyss%20Bay%20railway%20station%20concourse%202018-08-25%202.jpg,Colin,2018-09-15 19:17:19,2018,15,railway station; harbour railway station,-4.889426923,55.87608064,N/A,Inverclyde,Renfrewshire
"Edinburgh, 12 Carlton Terrace",http://commons.wikimedia.org/wiki/Special:FilePath/Edinburgh%2C%2012%20Carlton%20Terrace.jpg,Wilmm,2017-09-24 20:27:46,2017,24,terrace house,-3.17391,55.9566,N/A,City of Edinburgh,Midlothian
Skelmorlie Aisle,http://commons.wikimedia.org/wiki/Special:FilePath/Skelmorlie%20Aisle%2C%20Largs.JPG,Rosser1954,2009-09-06 21:44:54,2009,6,church building,-4.868580555,55.79475,N/A,North Ayrshire,Ayrshire
Pavilion Theatre,http://commons.wikimedia.org/wiki/Special:FilePath/Pavilion%20Theatre.jpg,Stinglehammer,2017-09-16 11:45:47,2017,16,theatre,-4.2557,55.8651,1904-01-01T00:00:00Z,Glasgow City,Lanarkshire
"All Saints' Church, St Andrews",http://commons.wikimedia.org/wiki/Special:FilePath/All%20Saints%20Episcopal%20Church%20%286a6%29.jpg,Alasdaircoles,2017-09-28 10:34:36,2017,28,church building,-2.7911,56.3411,N/A,Fife; St Andrews,Fife
National Monument of Scotland,http://commons.wikimedia.org/wiki/Special:FilePath/National%20Monument%20of%20Scotland%20View%20from%20Above.jpg,Kristijrn,2017-09-20 07:29:30,2017,20,unfinished building; monument,-3.181909277,55.954743422,N/A,City of Edinburgh,Midlothian
"Star House, 25 Kirkgate, Alloa",http://commons.wikimedia.org/wiki/Special:FilePath/LB20955%20Alloa%20Star%20House.jpg,AllyD,2023-09-05 15:06:50,2023,5,building; architectural structure,-3.79311,56.1132,1695-01-01T00:00:00Z,Clackmannanshire,Clackmannanshire
"New Abbey, Monksmill",http://commons.wikimedia.org/wiki/Special:FilePath/New%20Abbey%20Corn%20Mill%20-%20general%20view%20from%20NW.jpg,ArchHist,2018-09-01 13:23:08,2018,1,watermill,-3.62297,54.98,N/A,Dumfries and Galloway,Kirkcudbrightshire
Ferniehirst Castle,http://commons.wikimedia.org/wiki/Special:FilePath/Entering%20Ferniehirst%20Library%20on%20the%20tour.jpg,Victuallers,2018-09-02 17:46:37,2018,2,castle,-2.55124,55.4543,1470-01-01T00:00:00Z,Scottish Borders,Roxburghshire
Prestonfield House,http://commons.wikimedia.org/wiki/Special:FilePath/Prestonfield%20House%20-%20view%20from%20SW.jpg,ArchHist,2018-09-30 17:46:21,2018,30,house; hotel,-3.16659,55.93561,N/A,City of Edinburgh,Midlothian
Haa of Sand,http://commons.wikimedia.org/wiki/Special:FilePath/Haa%20of%20Sand%20%28geograph%205154702%29.jpg,Plucas58,2017-09-01 21:01:19,2017,1,architectural structure,-1.38057,60.207,N/A,Shetland Islands; Sandsting,Shetland Islands
Drill Hall,http://commons.wikimedia.org/wiki/Special:FilePath/Dalmeny%20Street%20Drill%20Hall.jpg,Jonathan Oldenbuck,2011-09-30 14:14:12,2011,30,hall,-3.1742,55.9646,1901-01-01T00:00:00Z,City of Edinburgh,Midlothian
"Aviemore Station, Island Platform",http://commons.wikimedia.org/wiki/Special:FilePath/Aviemore%20Station%20-%20view%20of%20island%20platform.jpg,ArchHist,2018-09-09 18:06:00,2018,9,railway platform,-3.82874,57.1887,N/A,Highland,Inverness-shire
"St Aloysius Church, Glasgow",http://commons.wikimedia.org/wiki/Special:FilePath/St%20Aloysius%20Church%2C%20Glasgow%2001.jpg,Stinglehammer,2017-09-16 12:17:55,2017,16,church building,-4.2618,55.8665,1910-02-06T00:00:00Z,Glasgow City,Lanarkshire
Holmwood House,http://commons.wikimedia.org/wiki/Special:FilePath/Holmwood.jpg,File Upload Bot (Magnus Manske),2011-09-07 17:57:50,2011,7,villa; country house,-4.259357744,55.809734561,1858-01-01T00:00:00Z,Glasgow City,Renfrewshire
Reid Memorial Church,http://commons.wikimedia.org/wiki/Special:FilePath/Reid%20Memorial%20Church%2003.JPG,Jamesx12345,2014-09-26 17:00:06,2014,26,church building,-3.1847,55.9265,1935-01-01T00:00:00Z,City of Edinburgh,Midlothian
Catholic Apostolic Church,http://commons.wikimedia.org/wiki/Special:FilePath/Ceiling%20mural%20at%20Mansfield%20Traquair%20Centre.jpg,Ammienoot,2017-09-28 23:06:43,2017,28,church building,-3.19047,55.9597,N/A,City of Edinburgh,Midlothian
House of Dun,http://commons.wikimedia.org/wiki/Special:FilePath/House%20of%20Dun%20-%20geograph.org.uk%20-%201690926.jpg,Geograph Update Bot,2017-09-09 18:55:59,2017,9,country house,-2.540404,56.729303,N/A,Angus,Angus
St George's-Tron Church,http://commons.wikimedia.org/wiki/Special:FilePath/163%20Buchanan%20Street%2C%20St%20George%27s%20Tron%20Parish%20Church.jpg,Stinglehammer,2017-09-11 23:09:08,2017,11,church building,-4.25397,55.862,1808-01-01T00:00:00Z,Glasgow City,Lanarkshire
Dean Cemetery,http://commons.wikimedia.org/wiki/Special:FilePath/The%20south-west%20section%20of%20Dean%20Cemetery.JPG,Stephencdickson,2014-09-07 11:26:46,2014,7,cemetery,-3.2225039,55.953026,N/A,City of Edinburgh,Midlothian
Edinburgh College of Art,http://commons.wikimedia.org/wiki/Special:FilePath/3W6A4986.jpg,EugenStoica,2019-09-13 23:08:23,2019,13,art school; production company,-3.19964,55.9458,1760-01-01T00:00:00Z,City of Edinburgh,Midlothian
"38–44 High Street, Linlithgow",http://commons.wikimedia.org/wiki/Special:FilePath/Linlithgow%2042%2C%2044%20High%20Street.jpg,Stinglehammer,2018-09-30 01:06:54,2018,30,tenement,-3.59766,55.9769,N/A,West Lothian,West Lothian
"Helensburgh, 17 Colquhoun Street Upper, Drumadoon Private Nursing Home",http://commons.wikimedia.org/wiki/Special:FilePath/DSCN6226%20Morar%20House%20Helensburgh.jpg,AlasdairW,2020-09-05 11:18:12,2020,5,architectural structure,-4.72947,56.0174,N/A,Argyll and Bute; Helensburgh,Dunbartonshire
Alexander's School,http://commons.wikimedia.org/wiki/Special:FilePath/Former%20Alexanders%20Public%20School%20%28geograph%201663146%29.jpg,Plucas58,2017-09-01 10:36:03,2017,1,building,-4.235451369,55.859557643,N/A,Glasgow City,Lanarkshire
Pollok House,http://commons.wikimedia.org/wiki/Special:FilePath/Pollok%20House%2C%20Glasgow.jpg,LornaMCampbell,2017-09-28 23:18:11,2017,28,art museum; house museum,-4.31851,55.828,N/A,Glasgow City,Renfrewshire
Dunkeld Cathedral,http://commons.wikimedia.org/wiki/Special:FilePath/Dunkel%20Cathedral%2020090617%20choir%20exterior.jpg,Otter,2009-09-25 17:19:29,2009,25,cathedral,-3.589915483,56.565129753,1260-01-01T00:00:00Z,Perth and Kinross,Perthshire
Lerwick Town Hall,http://commons.wikimedia.org/wiki/Special:FilePath/Lerwick%20Town%20Hall%20%281%29.jpg,FlickreviewR,2011-09-20 19:18:36,2011,20,town hall,-1.14644,60.1545,N/A,Shetland Islands,Shetland Islands
Cowane's Hospital,http://commons.wikimedia.org/wiki/Special:FilePath/Cowane%27s%20Hospital%2C%202003.JPG,Elisa.rolle,2013-09-05 11:23:25,2013,5,almshouse,-3.94505,56.1205,N/A,Stirling,Stirlingshire
Castle of Park,http://commons.wikimedia.org/wiki/Special:FilePath/Castle%20of%20Park%20Glenluce%20exterior.JPG,John of Reading,2010-09-29 13:47:23,2010,29,tower house,-4.82555,54.876,N/A,Dumfries and Galloway,Wigtownshire
Castle of Mey,http://commons.wikimedia.org/wiki/Special:FilePath/Mey%20castle%202.JPG,Eowyn Cwper,2014-09-02 16:19:29,2014,2,castle; house museum,-3.22448247,58.647032416,1566-01-01T00:00:00Z,Highland,Caithness
Bedlay Castle,http://commons.wikimedia.org/wiki/Special:FilePath/Bedlayplan.png,Supergolden,2006-09-04 14:37:23,2006,4,castle; tower house,-4.093945708,55.905778803,N/A,North Lanarkshire,Lanarkshire
Union Bridge,http://commons.wikimedia.org/wiki/Special:FilePath/Union%20Chain%20Bridge%20between%20England%20and%20Scotland%2C%202019.jpg,DeFacto,2020-09-01 20:53:12,2020,1,suspension bridge; road bridge,-2.107210826,55.752491622,1820-01-01T00:00:00Z,Scottish Borders; Horncliffe; Hutton,Northumberland
Merchiston Tower,http://commons.wikimedia.org/wiki/Special:FilePath/Merchiston%20Tower%2C%20Edinburgh.jpg,Kim Traynor,2011-09-21 08:18:37,2011,21,castle,-3.21391,55.9333,1454-01-01T00:00:00Z,City of Edinburgh,Midlothian
"Paisley, St James Street, Sheriff Court And Procurator Fiscal's Office",http://commons.wikimedia.org/wiki/Special:FilePath/Renfrewshire%20county.jpg,File Upload Bot (Magnus Manske),2008-09-25 13:22:23,2008,25,courthouse,-4.42686,55.8486,N/A,Renfrewshire; Paisley,Renfrewshire
Castle Stuart,http://commons.wikimedia.org/wiki/Special:FilePath/CastleStuart.jpg,Zkf,2006-09-11 20:21:40,2006,11,castle,-4.10278,57.5208,1619-01-01T00:00:00Z,Highland,Inverness-shire
"Helensburgh, Rhu Road Lower, Dalmore House",http://commons.wikimedia.org/wiki/Special:FilePath/DSCN3702%20Dalmore%20House.jpg,AlasdairW,2019-09-16 22:11:53,2019,16,villa,-4.75932,56.0114,N/A,Argyll and Bute; Helensburgh,Dunbartonshire
St George's-Tron Church,http://commons.wikimedia.org/wiki/Special:FilePath/163%20Buchanan%20Street%2C%20St%20George%27s%20Tron%20Parish%20Church.jpg,Stinglehammer,2017-09-11 23:09:08,2017,11,church building,-4.253941666,55.861830555,1808-01-01T00:00:00Z,Glasgow City,Lanarkshire
Bathgate Academy,http://commons.wikimedia.org/wiki/Special:FilePath/Bathgate%20Academy.jpg,Kim Traynor,2011-09-18 00:50:55,2011,18,secondary school; school building,-3.63373,55.9005,N/A,West Lothian,West Lothian
"Inveraray Castle Estate, Garron Bridge, Garron Lodge",http://commons.wikimedia.org/wiki/Special:FilePath/Garron%20Lodge.jpg,Vanished user 9374021,2018-09-17 19:11:33,2018,17,gatehouse,-5.04636111,56.24616667,N/A,Argyll and Bute,Argyll
Pinkie House,http://commons.wikimedia.org/wiki/Special:FilePath/401%20LORETTO.jpg,AltitudeJunkie,2011-09-26 06:48:55,2011,26,building,-3.04415,55.9425,N/A,Musselburgh; East Lothian,Midlothian
Rowallan Castle,http://commons.wikimedia.org/wiki/Special:FilePath/Rowallan%20Castle.JPG,Sagereid,2013-09-09 18:47:34,2013,9,castle,-4.488638888,55.65,N/A,East Ayrshire,Ayrshire
Crimond Church,http://commons.wikimedia.org/wiki/Special:FilePath/Parish%20Church%20of%20Crimond%2012.jpg,Sagaciousphil,2013-09-03 16:56:07,2013,3,church building,-1.911492499,57.600875615,N/A,Aberdeenshire,Aberdeenshire
St Mary's Church,http://commons.wikimedia.org/wiki/Special:FilePath/St%20Mary%27s%20Church%20%28Grandtully%29%2020090615.jpg,Otter,2009-09-06 14:00:16,2009,6,church building,-3.816209343,56.634300152,N/A,Perth and Kinross,Perthshire
"Alloway, Robert Burns Monument",http://commons.wikimedia.org/wiki/Special:FilePath/Burns%20Monument%20By%20VegasGav77777.jpg,VegasGav7777,2016-09-30 16:55:55,2016,30,monument,-4.63678,55.4269,N/A,South Ayrshire,Ayrshire
Castle Fraser,http://commons.wikimedia.org/wiki/Special:FilePath/Castle%20Fraser%2C%20full%20view.jpg,Karora,2007-09-23 22:36:12,2007,23,castle; Z-plan castle,-2.460555555,57.203,1455-01-01T00:00:00Z,Aberdeenshire,Aberdeenshire
Laggan Dam,http://commons.wikimedia.org/wiki/Special:FilePath/LagganDam1.jpg,TreveX,2006-09-24 14:42:25,2006,24,dam,-4.67306,56.8895,N/A,Highland,Inverness-shire
Tulloch Castle,http://commons.wikimedia.org/wiki/Special:FilePath/Tulloch%20Castle%20%28geograph%203548404%29.jpg,File Upload Bot (Magnus Manske),2013-09-09 14:12:12,2013,9,tower house,-4.43323,57.6093,N/A,Highland,Ross-shire
Culzean Castle,http://commons.wikimedia.org/wiki/Special:FilePath/Culzean%20Castle.JPG,Sir Gawain,2005-09-24 11:53:33,2005,24,castle; tower house; country house,-4.789292,55.354639,N/A,South Ayrshire,Ayrshire
St Andrews Castle,http://commons.wikimedia.org/wiki/Special:FilePath/General%20view%20of%20castle%20from%20SE.jpg,ArchHist,2018-09-09 16:27:32,2018,9,castle,-2.790055555,56.342180555,1200-01-01T00:00:00Z,Fife,Fife
Riverside Parish Church,http://commons.wikimedia.org/wiki/Special:FilePath/Riverside%20Parish%20Church%20-%20view%20from%20W.jpg,ArchHist,2018-09-16 16:50:07,2018,16,church building,-4.56717,55.9429,N/A,West Dunbartonshire,Dunbartonshire
Castle Leod,http://commons.wikimedia.org/wiki/Special:FilePath/Castle%20Leod%20%28Ross%20and%20Cromarty%29%20%285008857210%29.jpg,File Upload Bot (Magnus Manske),2013-09-02 11:33:23,2013,2,tower house,-4.534953656,57.598464143,N/A,Highland,Cromartyshire
Gardie House,http://commons.wikimedia.org/wiki/Special:FilePath/Gardie%20House.jpg,Geograph Update Bot,2017-09-10 18:01:37,2017,10,country house,-1.12317,60.1601,N/A,Shetland Islands,Shetland Islands
Brisbane Aisle,http://commons.wikimedia.org/wiki/Special:FilePath/Largs%2C%20The%20Brisbane%20Aisle.JPG,Rosser1954,2009-09-06 21:37:23,2009,6,burial vault,-4.8689,55.7948,N/A,North Ayrshire,Ayrshire
"Cumnock, The Square, Market Cross",http://commons.wikimedia.org/wiki/Special:FilePath/Old%20Cumnock%20Old%20Church%20and%20mercat%20cross.JPG,Kim Traynor,2013-09-14 17:54:23,2013,14,market cross,-4.26621,55.454,N/A,East Ayrshire; Cumnock and Holmhead,Ayrshire
St Clement's Church,http://commons.wikimedia.org/wiki/Special:FilePath/St%20Clement%27s%20Church%2C%20Rodel.%20Harris.jpg,Gweduni,2017-09-30 13:18:31,2017,30,church building,-6.96329,57.7409,1401-01-01T00:00:00Z,Outer Hebrides,Inverness-shire
Chatelherault,http://commons.wikimedia.org/wiki/Special:FilePath/Chatelherault%20Hunting%20Lodge.jpg,Grazzer,2014-09-16 18:34:23,2014,16,house museum; visitor center; lodge,-4.015,55.7625,N/A,South Lanarkshire,Lanarkshire
Powrie Castle,http://commons.wikimedia.org/wiki/Special:FilePath/Powrie%20Castle%20North%20Wing.jpg,Ydam~commonswiki,2006-09-16 18:07:08,2006,16,fortified house,-2.941691287,56.499828323,N/A,Dundee City,Angus
Mount Stuart House,http://commons.wikimedia.org/wiki/Special:FilePath/Mount%20Stuart%20House%202018-08-25.jpg,Colin,2018-09-07 14:28:47,2018,7,house museum; country house,-5.018747222,55.791647222,1870-01-01T00:00:00Z,Argyll and Bute,Buteshire
Barcaldine Castle,http://commons.wikimedia.org/wiki/Special:FilePath/Barcaldine%20Castle%20-%20view%20from%20SW.jpg,ArchHist,2018-09-30 11:33:43,2018,30,tower house,-5.401642466,56.510577532,1601-01-01T00:00:00Z,Argyll and Bute,Argyll
Walmer Crescent,http://commons.wikimedia.org/wiki/Special:FilePath/Walmer%20crescent.jpg,File Upload Bot (Magnus Manske),2011-09-07 18:00:48,2011,7,crescent,-4.295588888,55.852061111,1862-01-01T00:00:00Z,Glasgow City,Lanarkshire
"Yell, West Sandwick, The North Haa",http://commons.wikimedia.org/wiki/Special:FilePath/The%20North%20Haa%2C%20West%20Sandwick%20%28geograph%205478771%29.jpg,Plucas58,2017-09-01 21:05:36,2017,1,architectural structure,-1.18892,60.5728,N/A,Shetland Islands,Shetland Islands
Pitlochry Church of Scotland,http://commons.wikimedia.org/wiki/Special:FilePath/Pitlochry%20-%20Church%20of%20Scotland.jpg,ArchHist,2018-09-01 11:23:48,2018,1,church building,-3.73279,56.7042,N/A,Perth and Kinross; Pitlochry,Perthshire
Carloonan Doocot,http://commons.wikimedia.org/wiki/Special:FilePath/Argyll%20and%20Bute%20-%20Carloonan%20Doocot%20-%2020220612134619.jpg,Dbrooke1829,2022-09-17 11:12:12,2022,17,dovecote,-5.087633353,56.249335998,N/A,Argyll and Bute,Argyll
Greyfriars Kirkyard,http://commons.wikimedia.org/wiki/Special:FilePath/-15SirRobtDennistoun.jpg,Warriston,2017-09-17 22:30:38,2017,17,cemetery,-3.19272,55.947,N/A,City of Edinburgh,Midlothian
New College,http://commons.wikimedia.org/wiki/Special:FilePath/New%20College%2C%20Edinburgh%201.jpg,GarDav,2017-09-18 16:28:25,2017,18,educational institution,-3.1952,55.9498,N/A,City of Edinburgh,Midlothian
Archers' Hall,http://commons.wikimedia.org/wiki/Special:FilePath/Archers%27%20Hall%2C%20Buccleuch%20Street%20Edinburgh.jpg,Kim Traynor,2011-09-23 01:54:01,2011,23,hall; clubhouse,-3.18454,55.9422,N/A,City of Edinburgh,Midlothian
Scotland Street School Museum,http://commons.wikimedia.org/wiki/Special:FilePath/Scotland%20Street%20School%20infants%20entrance%20DSCN8975.jpg,AlasdairW,2017-09-26 22:45:12,2017,26,museum; school building; education museum,-4.27409,55.8497,1906-01-01T00:00:00Z,Glasgow City,Renfrewshire
"St Mary's College, St Andrews",http://commons.wikimedia.org/wiki/Special:FilePath/St%20Mary%27s%20College%2C%20winter%20morning%20%282%29.jpg,FHL2,2017-09-27 15:08:54,2017,27,university building,-2.794649772,56.339083195,N/A,Fife; St Andrews,Fife
Edinburgh Waverley railway station,http://commons.wikimedia.org/wiki/Special:FilePath/Edinburgh%20-%20Edinburgh%20Waverley%20railway%20station%20-%2020151103180602.jpg,LornaMCampbell,2017-09-13 21:01:13,2017,13,railway station,-3.189,55.952,N/A,City of Edinburgh,Midlothian
Scottish National Gallery of Modern Art,http://commons.wikimedia.org/wiki/Special:FilePath/Modern%20One%2C%20Scottish%20National%20Gallery%20of%20Modern%20Art%2C%20Belford%20Road%2C%20Edinburgh.jpg,Grousebeater2,2018-09-28 22:16:21,2018,28,art museum; national museum,-3.22784,55.950924,1960-01-01T00:00:00Z,City of Edinburgh,Midlothian
Glasgow City Chambers,http://commons.wikimedia.org/wiki/Special:FilePath/City%20Chambers%2C%20George%20Square%2C%20Glasgow%2004.jpg,Stinglehammer,2017-09-19 00:43:10,2017,19,town hall,-4.248669677,55.860988381,N/A,Glasgow City,Lanarkshire
Modern Two,http://commons.wikimedia.org/wiki/Special:FilePath/Modern%20Two%20%28Dean%20Gallery%29%2C%2073%20Belford%20Road%2C%20Edinburgh%20%28side%20view%29.jpg,Grousebeater2,2018-09-28 22:08:33,2018,28,art museum,-3.2242,55.9518,1999-01-01T00:00:00Z,City of Edinburgh,Midlothian
Bo'ness railway station,http://commons.wikimedia.org/wiki/Special:FilePath/Bo%27ness%20heritage%20railway%20station%20locomotive%20running%20shed.jpg,Minna KM,2018-09-28 14:05:37,2018,28,railway station,-3.59939,56.0179,N/A,Falkirk,West Lothian
"14 - 20 Cathedral Square, Barony North Church",http://commons.wikimedia.org/wiki/Special:FilePath/14%20-%2020%20Cathedral%20Square%2C%20Barony%20North%20Church%2004.jpg,Stinglehammer,2017-09-30 13:50:40,2017,30,church building,-4.23508,55.8614,N/A,Glasgow City,Lanarkshire
Niddry Castle,http://commons.wikimedia.org/wiki/Special:FilePath/Niddry%20Castle.jpg,Jonathan Oldenbuck,2009-09-24 16:50:57,2009,24,tower house,-3.450533055,55.953841517,1500-01-01T00:00:00Z,West Lothian,West Lothian
Helensburgh War Memorial,http://commons.wikimedia.org/wiki/Special:FilePath/Helensburgh%20War%20Memorial-geograph-4011601.jpg,Geograph Update Bot,2017-09-17 23:23:15,2017,17,war memorial,-4.72828,56.0083,N/A,Argyll and Bute; Helensburgh,Dunbartonshire
Drill Hall,http://commons.wikimedia.org/wiki/Special:FilePath/Dalmeny%20Street%20Drill%20Hall.jpg,Jonathan Oldenbuck,2011-09-30 14:14:12,2011,30,hall,-3.17433,55.9645,1901-01-01T00:00:00Z,City of Edinburgh,Midlothian
"Aberlour House, West Lodge, Gatepier & Gates",http://commons.wikimedia.org/wiki/Special:FilePath/Aberlour%20House%20West%20Lodge%20gates.jpg,DuncanJohn44,2023-09-14 18:34:28,2023,14,house,-3.210945553,57.476199758,N/A,Moray,Banffshire
Prestongrange Parish Church,http://commons.wikimedia.org/wiki/Special:FilePath/Prestongrange%20Church%20-%20composite%20view%20from%20SE.jpg,ArchHist,2018-09-30 20:13:41,2018,30,church building,-2.98151,55.9601,N/A,East Lothian,East Lothian
Taymouth Castle,http://commons.wikimedia.org/wiki/Special:FilePath/Taymouth%20Castle%2C%20Kenmore%20Gate.jpg,Stinglehammer,2017-09-10 22:07:29,2017,10,castle,-3.995342926,56.589645874,1842-01-01T00:00:00Z,Perth and Kinross,Perthshire
House of the Binns,http://commons.wikimedia.org/wiki/Special:FilePath/The%20House%20of%20the%20Binns%20-%20geograph.org.uk%20-%201693612.jpg,Geograph Update Bot,2017-09-09 19:01:19,2017,9,country house,-3.523171562,55.99064277,N/A,West Lothian,West Lothian
Corsewall Lighthouse,http://commons.wikimedia.org/wiki/Special:FilePath/Corsewell%20Lighthouse%20and%20Hotel%20-%20geograph.org.uk%20-%201708569.jpg,Geograph Update Bot,2017-09-09 19:40:51,2017,9,lighthouse,-5.159166666,55.007,1816-01-01T00:00:00Z,Dumfries and Galloway,Wigtownshire
Fasque House,http://commons.wikimedia.org/wiki/Special:FilePath/Fasque%20House.jpg,Jonathan Oldenbuck,2009-09-10 12:57:07,2009,10,country house,-2.578544995,56.869787358,N/A,Aberdeenshire,Kincardineshire
The Royal and Ancient Golf Club of St Andrews,http://commons.wikimedia.org/wiki/Special:FilePath/St.%20Andrew%27s%20At%20Dusk%20033.jpg,ORTDL84,2017-09-06 11:13:05,2017,6,golf course; golf club,-2.802802777,56.343563888,1754-01-01T00:00:00Z,Fife; St Andrews,Fife
Glasgow Stock Exchange,http://commons.wikimedia.org/wiki/Special:FilePath/11%20Nelson%20Mandela%20Place%2C%20Glasgow.jpg,LornaMCampbell,2019-09-16 13:04:29,2019,16,stock exchange; architectural structure,-4.25408,55.8617,1844-01-01T00:00:00Z,Glasgow City,Lanarkshire
Prestonfield House,http://commons.wikimedia.org/wiki/Special:FilePath/Prestonfield%20House%20-%20view%20from%20SW.jpg,ArchHist,2018-09-30 17:46:21,2018,30,house; hotel,-3.15726,55.9366,N/A,City of Edinburgh,Midlothian
Jenners,http://commons.wikimedia.org/wiki/Special:FilePath/Edinburgh%2C%2047%2C%2048%2C%2049%2C%2050%2C%2051%2C%2052%20Princes%20Street%2C%20Jenners%2003.jpg,Stinglehammer,2017-09-30 11:44:43,2017,30,department store; brick and mortar,-3.19416,55.9531,1838-01-01T00:00:00Z,City of Edinburgh,Midlothian
St Andrew's Cathedral,http://commons.wikimedia.org/wiki/Special:FilePath/St%20Andrew%27s%20Metropolitan%20Cathedral%2C%20Glasgow%2004.jpg,Stinglehammer,2017-09-24 20:54:21,2017,24,cathedral,-4.252836473,55.855672455,1816-01-01T00:00:00Z,Glasgow City,Lanarkshire
St Giles' Cathedral,http://commons.wikimedia.org/wiki/Special:FilePath/St%20Giles%27Cathedral%20Edinburgh.jpg,Elgdy,2017-09-15 00:43:01,2017,15,cathedral,-3.190833333,55.949444444,1400-01-01T00:00:00Z,City of Edinburgh,Midlothian
"2 St Vincent Place, Bank Of Scotland",http://commons.wikimedia.org/wiki/Special:FilePath/2%20St%20Vincent%20Place%2C%20Bank%20Of%20Scotland.jpg,Stinglehammer,2017-09-16 01:23:26,2017,16,bank building,-4.25191,55.8612,N/A,Glasgow City,Lanarkshire
Kinkell Castle,http://commons.wikimedia.org/wiki/Special:FilePath/Kinkell%20Castle%20%28geograph%203324064%29.jpg,File Upload Bot (Magnus Manske),2013-09-03 12:50:42,2013,3,tower house,-4.41856,57.5559,N/A,Highland,Ross-shire
"Edinburgh, Stockbridge, 6 Dean Terrace",http://commons.wikimedia.org/wiki/Special:FilePath/Edinburgh%2C%20Stockbridge%2C%206%20Dean%20Terrace.jpg,Fredinburgh,2016-09-10 10:25:01,2016,10,terrace house,-3.20976,55.9577,N/A,City of Edinburgh,Midlothian
Lion Chambers,http://commons.wikimedia.org/wiki/Special:FilePath/172%20Hope%20Street%2C%20Lion%20Chambers%2001.jpg,Stinglehammer,2017-09-19 00:15:25,2017,19,office building,-4.25735,55.8635,N/A,Glasgow City,Lanarkshire
"Edinburgh, 26 Royal Terrace",http://commons.wikimedia.org/wiki/Special:FilePath/Edinburgh%2C%2026%20Royal%20Terrace.jpg,Wilmm,2017-09-24 19:55:29,2017,24,terrace house,-3.17748,55.9567,N/A,City of Edinburgh,Midlothian
24 George Square,http://commons.wikimedia.org/wiki/Special:FilePath/24%20George%20Square%2C%20Glasgow.jpg,Stinglehammer,2017-09-16 01:26:13,2017,16,building,-4.25182,55.8613,N/A,Glasgow City,Lanarkshire
185 Bath Street,http://commons.wikimedia.org/wiki/Special:FilePath/The%20Glasgow%20Art%20Club%2016%20-%20Bath%20Street%20entrance.jpg,Stinglehammer,2018-09-30 22:06:40,2018,30,building,-4.26264,55.8643,N/A,Glasgow City,Lanarkshire
"Dunfermline, Pilmuir Street, Pilmuir Works",http://commons.wikimedia.org/wiki/Special:FilePath/Pilmuir%20Works%20Chimney.jpg,ArchHist,2018-09-01 11:06:57,2018,1,architectural structure,-3.46203,56.0742,N/A,Fife,Fife
"Castle Street, Barony Parish Church, Church Hall",http://commons.wikimedia.org/wiki/Special:FilePath/Castle%20Street%2C%20Barony%20Parish%20Church%2C%20Church%20Hall.jpg,Drkirstyross,2022-09-30 08:30:28,2022,30,hall,-4.23708,55.862,N/A,Glasgow City,Lanarkshire
"Edinburgh, 15 South Charlotte Street",http://commons.wikimedia.org/wiki/Special:FilePath/DSCN2115%2011-%2015%20South%20Charlotte%20Street.jpg,AlasdairW,2018-09-30 21:41:31,2018,30,architectural structure,-3.20589,55.9512,N/A,City of Edinburgh,Midlothian
74 - 90 Trongate,http://commons.wikimedia.org/wiki/Special:FilePath/74%20-%2090%20Trongate%2C%20Glasgow.jpg,Lirazelf,2018-09-03 13:50:10,2018,3,architectural structure,-4.24575,55.8573,N/A,Glasgow City,Lanarkshire
Noss Head Lighthouse,http://commons.wikimedia.org/wiki/Special:FilePath/Noss%20Head%20Lighthouse%20%28geograph%202595409%29.jpg,File Upload Bot (Magnus Manske),2013-09-02 02:22:10,2013,2,lighthouse,-3.05092,58.479,1849-01-01T00:00:00Z,Highland,Caithness
"University Avenue, University Of Glasgow, Zoology Building",http://commons.wikimedia.org/wiki/Special:FilePath/UoGGrahamKerrBuilding-170914.jpg,Argymeg,2017-09-14 23:06:27,2017,14,university building,-4.29299,55.8715,N/A,Glasgow City,Lanarkshire
60 - 62 Trongate,http://commons.wikimedia.org/wiki/Special:FilePath/60%20-%2062%20Trongate%2C%20Glasgow.jpg,Lirazelf,2018-09-03 13:49:12,2018,3,architectural structure,-4.24545,55.8573,N/A,Glasgow City,Lanarkshire
12 University Gardens,http://commons.wikimedia.org/wiki/Special:FilePath/12%20University%20Gardens%2C%20University%20of%20Glasgow.jpg,Lirazelf,2018-09-04 20:04:59,2018,4,building,-4.29064,55.8732,N/A,Glasgow City,Lanarkshire
"Edinburgh, 16 Rutland Square",http://commons.wikimedia.org/wiki/Special:FilePath/16%20Rutland%20Sq.jpg,Spillerjzy,2017-09-23 15:06:22,2017,23,architectural structure,-3.20945,55.9483,N/A,City of Edinburgh,Midlothian
"Edinburgh, Stockbridge, 4 Dean Terrace",http://commons.wikimedia.org/wiki/Special:FilePath/Edinburgh%2C%20Stockbridge%2C%204%20Dean%20Terrace.jpg,Fredinburgh,2016-09-10 10:24:24,2016,10,terrace house,-3.20962,55.9578,N/A,City of Edinburgh,Midlothian
"High Sunderland, Galashiels, Including Boundary Walls And Gate Piers",http://commons.wikimedia.org/wiki/Special:FilePath/High%20Sunderland.jpg,ArchHist,2018-09-01 10:39:12,2018,1,house,-2.83672,55.5743,N/A,Scottish Borders,Selkirkshire
"Edinburgh, 33, 34, 35 Charlotte Square",http://commons.wikimedia.org/wiki/Special:FilePath/DSCN5952%2033%2C%2034%2C%2035%20Charlotte%20Square%20during%20Covid19%20lockdown.jpg,AlasdairW,2020-09-30 18:09:59,2020,30,architectural structure,-3.20597,55.9514,N/A,City of Edinburgh,Midlothian
"Skye, Bornesketaig, No. 40, Beaton's Cottage",http://commons.wikimedia.org/wiki/Special:FilePath/Beaton%27s%20Croft.jpg,Pete Goodwin,2018-09-30 13:42:20,2018,30,cottage,-6.39635,57.65,N/A,Highland,Inverness-shire
"University Avenue, University Of Glasgow, Chemistry Building, Institute Of Chemistry",http://commons.wikimedia.org/wiki/Special:FilePath/UofGJosephBlackNE-170914.jpg,Argymeg,2017-09-14 23:12:32,2017,14,university building,-4.29321,55.8721,N/A,Glasgow City,Lanarkshire
"70 Cathedral Square, Cathedral Of St Mungo, Burial Ground",http://commons.wikimedia.org/wiki/Special:FilePath/70%20Cathedral%20Square%2C%20Cathedral%20Of%20St%20Mungo%2C%20Burial%20Ground%2001.jpg,Stinglehammer,2017-09-30 13:32:50,2017,30,architectural structure,-4.23453,55.8638,N/A,Glasgow City,Lanarkshire
"Queen Street Station, Bridge",http://commons.wikimedia.org/wiki/Special:FilePath/DSCN3240%20Queen%20Street%20Station%20Bridge%20from%20roof%20of%20Glasgow%20College%20of%20Building%20and%20Printing.jpg,AlasdairW,2019-09-28 21:35:16,2019,28,road bridge,-4.25086,55.8633,N/A,Glasgow City,Lanarkshire
Wick Heritage Centre building,http://commons.wikimedia.org/wiki/Special:FilePath/Heritage%20Centre%2C%20Wick%2001.jpg,Braveheart,2016-09-05 10:26:53,2016,5,architectural structure,-3.08892,58.4397,N/A,Highland,Caithness
"Edinburgh, Stockbridge, 3 Dean Terrace",http://commons.wikimedia.org/wiki/Special:FilePath/Edinburgh%2C%20Stockbridge%2C%203%20Dean%20Terrace.jpg,Fredinburgh,2016-09-10 10:23:51,2016,10,terrace house,-3.20957,55.9579,N/A,City of Edinburgh,Midlothian
"University Avenue, University Of Glasgow, Main Building",http://commons.wikimedia.org/wiki/Special:FilePath/Cloisters%2C%20University%20of%20Glasgow.jpg,LornaMCampbell,2017-09-08 20:35:46,2017,8,university building,-4.28897,55.8718,1870-01-01T00:00:00Z,Glasgow City,Lanarkshire
"71 Trongate, Tron Steeple",http://commons.wikimedia.org/wiki/Special:FilePath/71%20Trongate%2C%20Tron%20Steeple%20-%20detail.jpg,Stinglehammer,2017-09-24 22:12:21,2017,24,architectural structure,-4.24553,55.8569,N/A,Glasgow City,Lanarkshire
"91 Buchanan Street, Clydesdale Bank",http://commons.wikimedia.org/wiki/Special:FilePath/91%20Buchanan%20Street%2C%20Glasgow.jpg,Stinglehammer,2018-09-09 13:31:43,2018,9,building,-4.25473,55.8599,N/A,Glasgow City,Lanarkshire
Gunsgreen House,http://commons.wikimedia.org/wiki/Special:FilePath/Gunsgreen%20House%2C%20Eyemouth.jpg,Kim Traynor,2011-09-14 09:35:02,2011,14,country house,-2.08555,55.8724,N/A,Scottish Borders,Berwickshire
"Edinburgh, 25 Castle Terrace",http://commons.wikimedia.org/wiki/Special:FilePath/Edinburgh%2C%2025%20Castle%20Terrace.jpg,Stinglehammer,2018-09-09 12:44:17,2018,9,tenement,-3.20322,55.9473,N/A,City of Edinburgh,Midlothian
"752 Argyle Street, Savings Bank Of Glasgow",http://commons.wikimedia.org/wiki/Special:FilePath/Savings%20Bank%20of%20Glasgow%2C%20Argyle%20Street%2C%20Glasgow.jpg,ArchHist,2018-09-01 10:29:24,2018,1,building,-4.27419,55.8618,N/A,Glasgow City,Lanarkshire
"Edinburgh, 31 Royal Terrace",http://commons.wikimedia.org/wiki/Special:FilePath/Edinburgh%2C%2031%20Royal%20Terrace.jpg,Wilmm,2017-09-24 20:02:45,2017,24,terrace house,-3.17675,55.9566,N/A,City of Edinburgh,Midlothian
"Edinburgh, 29 Royal Terrace",http://commons.wikimedia.org/wiki/Special:FilePath/Edinburgh%2C%2029%20Royal%20Terrace.jpg,Wilmm,2017-09-24 19:59:16,2017,24,terrace house,-3.17707,55.9566,N/A,City of Edinburgh,Midlothian
"82 George Square, City Chambers, North Screen Archway",http://commons.wikimedia.org/wiki/Special:FilePath/George%20Square%2C%20City%20Chambers%2C%20North%20Screen%20Archway.jpg,TomZoy,2016-09-29 10:22:03,2016,29,architectural structure,-4.24749,55.861,N/A,Glasgow City,Lanarkshire
Lochinch Castle,http://commons.wikimedia.org/wiki/Special:FilePath/Lochinch%20Castle.jpg,ArchHist,2018-09-02 11:27:29,2018,2,castle,-4.95611,54.9147,1864-01-01T00:00:00Z,Dumfries and Galloway,Wigtownshire
8 University Gardens,http://commons.wikimedia.org/wiki/Special:FilePath/8%20University%20Gardens%2C%20University%20of%20Glasgow.jpg,Lirazelf,2018-09-04 20:06:32,2018,4,building,-4.29035,55.873,N/A,Glasgow City,Lanarkshire
"106, 108 Hope Street, Scottish Temperance League Offices",http://commons.wikimedia.org/wiki/Special:FilePath/106%2C%20108%20Hope%20Street%2C%20Scottish%20Temperance%20League%20Offices.jpg,Stinglehammer,2017-09-19 00:24:30,2017,19,commercial building,-4.25825,55.8612,N/A,Glasgow City,Lanarkshire
"Edinburgh, 19 Rutland Square",http://commons.wikimedia.org/wiki/Special:FilePath/19%20Rutland%20Sq.jpg,Spillerjzy,2017-09-23 15:04:57,2017,23,architectural structure,-3.20977,55.9484,N/A,City of Edinburgh,Midlothian
199 Bath Street,http://commons.wikimedia.org/wiki/Special:FilePath/Glasgow%20City%20-%20199%20Bath%20Street%20-%2020190930191044.jpg,Stinglehammer,2019-09-30 22:36:48,2019,30,building,-4.26334,55.8645,N/A,Glasgow City,Lanarkshire
"Edinburgh, 29 Rutland Square",http://commons.wikimedia.org/wiki/Special:FilePath/29%20Rutland%20Sq.jpg,Spillerjzy,2017-09-23 14:59:22,2017,23,architectural structure,-3.20934,55.9491,N/A,City of Edinburgh,Midlothian
"Edinburgh, 3 Rothesay Terrace",http://commons.wikimedia.org/wiki/Special:FilePath/3%20Rothesay%20Terrace%2C%20Edinburgh.JPG,AlasdairW,2013-09-29 23:01:51,2013,29,terrace house,-3.21662,55.9513,N/A,City of Edinburgh,Midlothian
"Edinburgh, 16 Regent Terrace",http://commons.wikimedia.org/wiki/Special:FilePath/16%20Regent%20Terrace.jpg,Spillerjzy,2017-09-23 15:43:40,2017,23,terrace house,-3.1765,55.9549,N/A,City of Edinburgh,Midlothian
"Edinburgh, 20 Rutland Square",http://commons.wikimedia.org/wiki/Special:FilePath/20%20Rutland%20Sq.jpg,Spillerjzy,2017-09-23 15:04:13,2017,23,architectural structure,-3.20987,55.9485,N/A,City of Edinburgh,Midlothian
"Edinburgh, 5 Rutland Square",http://commons.wikimedia.org/wiki/Special:FilePath/5%20Rutland%20Sq.jpg,Spillerjzy,2017-09-23 15:16:02,2017,23,architectural structure,-3.20837,55.9487,N/A,City of Edinburgh,Midlothian
"Dryburgh Abbey, Chapter House",http://commons.wikimedia.org/wiki/Special:FilePath/Chapterhouse%20at%20Dryburgh%20Abbey%2001.jpg,Mainlymazza,2020-09-24 17:42:43,2020,24,cemetery; monument,-2.64942,55.577,N/A,Scottish Borders,Berwickshire
Hamilton Monument,http://commons.wikimedia.org/wiki/Special:FilePath/11DukeMon1.jpg,AlanSPastonson,2013-09-07 19:04:29,2013,7,monument,-4.027385393,55.76605784,N/A,South Lanarkshire,Lanarkshire
"Edinburgh, 11, 13, 15 Cornwall Street",http://commons.wikimedia.org/wiki/Special:FilePath/Edinburgh%2C%2011%2C%2013%2C%2015%20Cornwall%20St.jpg,Stinglehammer,2018-09-06 22:37:15,2018,6,tenement,-3.20345,55.9471,N/A,City of Edinburgh,Midlothian
"Edinburgh, 32 Royal Terrace",http://commons.wikimedia.org/wiki/Special:FilePath/Edinburgh%2C%2032%20Royal%20Terrace.jpg,Wilmm,2017-09-24 20:03:36,2017,24,terrace house,-3.1766,55.9566,N/A,City of Edinburgh,Midlothian
"Edinburgh, 33 Royal Terrace",http://commons.wikimedia.org/wiki/Special:FilePath/Edinburgh%2C%2033%20Royal%20Terrace.jpg,Wilmm,2017-09-24 20:05:24,2017,24,terrace house,-3.17642,55.9566,N/A,City of Edinburgh,Midlothian
"Edinburgh, Stockbridge, 5 Dean Terrace",http://commons.wikimedia.org/wiki/Special:FilePath/Edinburgh%2C%20Stockbridge%2C%205%20Dean%20Terrace.jpg,Fredinburgh,2016-09-10 10:24:43,2016,10,terrace house,-3.20968,55.9577,N/A,City of Edinburgh,Midlothian
"Edinburgh, 36 Castle Terrace",http://commons.wikimedia.org/wiki/Special:FilePath/36%20Castle%20Terrace.jpg,Cromar,2018-09-03 12:39:26,2018,3,architectural structure,-3.20277,55.9468,N/A,City of Edinburgh,Midlothian
"Edinburgh, 26 Rutland Square",http://commons.wikimedia.org/wiki/Special:FilePath/26%20Rutland%20Sq.jpg,Spillerjzy,2017-09-23 15:02:42,2017,23,architectural structure,-3.20961,55.9489,N/A,City of Edinburgh,Midlothian
"Edinburgh, 12, 13 Rutland Square",http://commons.wikimedia.org/wiki/Special:FilePath/12%2C%2013%20Rutland%20Squ.jpg,Spillerjzy,2017-09-23 15:08:42,2017,23,architectural structure,-3.20906,55.9482,N/A,City of Edinburgh,Midlothian
St Leonard's Hall,http://commons.wikimedia.org/wiki/Special:FilePath/St%20Leonard%27s%20Hall.jpg,Nerd-pony,2014-09-01 09:29:55,2014,1,architectural structure,-3.17123,55.94004,N/A,City of Edinburgh,Midlothian
"45 Buchanan Street, Wylie & Lochead's",http://commons.wikimedia.org/wiki/Special:FilePath/45%20Buchanan%20Street%2C%20Glasgow.jpg,Stinglehammer,2018-09-09 18:16:02,2018,9,building,-4.25542,55.8591,N/A,Glasgow City,Lanarkshire
"79, 81, 83, 85 Glassford Street, Trades House",http://commons.wikimedia.org/wiki/Special:FilePath/Trades%20Hall.jpg,Trades House of Glasgow,2017-09-19 13:06:44,2017,19,building,-4.24906,55.8592,N/A,Glasgow City,Lanarkshire
"Longside, 15 Inn Brae, Parish Church With Gateway And Burial Ground",http://commons.wikimedia.org/wiki/Special:FilePath/Gateway%20to%20Old%20Parish%20Church%2C%20Longside%2002.JPG,Sagaciousphil,2013-09-02 18:37:58,2013,2,church building,-1.93959226,57.515262693,N/A,Aberdeenshire,Aberdeenshire
3 University Gardens,http://commons.wikimedia.org/wiki/Special:FilePath/3%20University%20Gardens%2C%20Glasgow.jpg,Stinglehammer,2017-09-28 23:29:53,2017,28,building,-4.28946,55.8728,N/A,Glasgow City,Lanarkshire
"Borthwick Castle, Gateway",http://commons.wikimedia.org/wiki/Special:FilePath/Borthwick%20Castle%2C%20Gateway%2004.jpg,DougRM,2018-09-21 17:48:31,2018,21,architectural structure,-3.00769,55.8265,N/A,Midlothian,Midlothian
"Edinburgh, 5 Darnaway Street",http://commons.wikimedia.org/wiki/Special:FilePath/City%20of%20Edinburgh%20-%20Edinburgh%2C%205%20Darnaway%20Street%20-%2020230512193057.jpg,AlasdairW,2023-09-04 22:36:58,2023,4,architectural structure,-3.20662,55.9548,N/A,City of Edinburgh,Midlothian
"Edinburgh, 18 Carlton Terrace",http://commons.wikimedia.org/wiki/Special:FilePath/Edinburgh%2C%2018%20Carlton%20Terrace.jpg,Wilmm,2017-09-24 20:18:46,2017,24,terrace house,-3.17487,55.9566,N/A,City of Edinburgh,Midlothian
"Castle Street, Barony Parish Church, Caretaker's House",http://commons.wikimedia.org/wiki/Special:FilePath/Castle%20Street%2C%20Barony%20Parish%20Church%2C%20Caretaker%27s%20House.jpg,Drkirstyross,2022-09-30 08:31:10,2022,30,caretaker's house,-4.2373,55.862,N/A,Glasgow City,Lanarkshire
"Edinburgh, 21 Regent Terrace",http://commons.wikimedia.org/wiki/Special:FilePath/21%20Regent%20Terrace.jpg,Spillerjzy,2017-09-23 15:36:39,2017,23,terrace house,-3.17593,55.9551,N/A,City of Edinburgh,Midlothian
"82 George Square, City Chambers, South Screen Archway",http://commons.wikimedia.org/wiki/Special:FilePath/George%20Square%2C%20City%20Chambers%2C%20South%20Screen%20Archway.jpg,TomZoy,2016-09-29 10:25:11,2016,29,architectural structure,-4.24764,55.8606,N/A,Glasgow City,Lanarkshire
"Granville Street, St Andrew's Halls",http://commons.wikimedia.org/wiki/Special:FilePath/201%20North%20Street%2C%20Mitchell%20Library%2C%20Glasgow%2012.jpg,Stinglehammer,2017-09-17 11:57:56,2017,17,building,-4.27345,55.8647,N/A,Glasgow City,Lanarkshire
7 University Gardens,http://commons.wikimedia.org/wiki/Special:FilePath/7%20University%20Gardens%2C%20University%20of%20Glasgow.jpg,Lirazelf,2018-09-04 20:06:56,2018,4,building,-4.29017,55.873,N/A,Glasgow City,Lanarkshire
Equestrian statue of William III,http://commons.wikimedia.org/wiki/Special:FilePath/Statue%20Of%20William%20III.jpg,TomZoy,2016-09-29 10:29:45,2016,29,statue,-4.23633,55.8618,N/A,Glasgow City,Lanarkshire
"Edinburgh, 13 Carlton Terrace",http://commons.wikimedia.org/wiki/Special:FilePath/Edinburgh%2C%2013%20Carlton%20Terrace.jpg,Wilmm,2017-09-24 20:26:00,2017,24,terrace house,-3.17407,55.9566,N/A,City of Edinburgh,Midlothian
"Castle Street, Barony Parish Church",http://commons.wikimedia.org/wiki/Special:FilePath/Castle%20Street%2C%20Barony%20Parish%20Church.jpg,Stinglehammer,2017-09-24 23:01:45,2017,24,church building; building,-4.23712,55.8619,N/A,Glasgow City,Lanarkshire
"102-106 Hill Street, Peel Terrace",http://commons.wikimedia.org/wiki/Special:FilePath/102-106%20Hill%20Street%2C%20Glasgow.jpg,Lirazelf,2019-09-03 14:34:39,2019,3,building,-4.26595,55.8674,N/A,Glasgow City,Lanarkshire
"Edinburgh, 17 West Register Street, Cafe Royal",http://commons.wikimedia.org/wiki/Special:FilePath/Cafe%20Royal%20Bar.JPG,Afmell,2013-09-30 19:53:46,2013,30,architectural structure,-3.19061,55.9538,N/A,City of Edinburgh,Midlothian
"Edinburgh, 11 Coates Crescent",http://commons.wikimedia.org/wiki/Special:FilePath/1-11%20COATES%20CRESCENT.JPG,Alexander Khokhlov,2013-09-29 16:30:06,2013,29,terrace house,-3.21236,55.9489,N/A,City of Edinburgh,Midlothian
"University Avenue, University Of Glasgow, Bute Hall",http://commons.wikimedia.org/wiki/Special:FilePath/Glasgow%20University%20Cloisters.jpg,Glaspark,2014-09-10 15:36:21,2014,10,university building,-4.2885,55.8715,N/A,Glasgow City,Lanarkshire
2 University Gardens,http://commons.wikimedia.org/wiki/Special:FilePath/2%20University%20Gardens%2C%20University%20of%20Glasgow.jpg,Lirazelf,2018-09-04 20:10:40,2018,4,building,-4.28934,55.8727,N/A,Glasgow City,Lanarkshire
"Edinburgh, 15 Coates Crescent",http://commons.wikimedia.org/wiki/Special:FilePath/15-Coates-Crescent-Edinburgh-Scotland.jpg,Andycatlincom,2017-09-20 23:21:31,2017,20,terrace house,-3.21328,55.9484,N/A,City of Edinburgh,Midlothian
"98 Ingram Street, Ramshorn Theatre, Churchyard",http://commons.wikimedia.org/wiki/Special:FilePath/Ramshorn%20Kirkyard%2C%20Glasgow%2C%2011.jpg,LornaMCampbell,2019-09-12 10:45:16,2019,12,churchyard,-4.24483,55.8603,N/A,Glasgow City,Lanarkshire
"Edinburgh, 38 Royal Terrace",http://commons.wikimedia.org/wiki/Special:FilePath/Edinburgh%2C%2038%20Royal%20Terrace.jpg,Wilmm,2017-09-24 20:14:17,2017,24,terrace house,-3.17564,55.9566,N/A,City of Edinburgh,Midlothian
"147 Buchanan Street, Western Club",http://commons.wikimedia.org/wiki/Special:FilePath/147%20Buchanan%20Street%2C%20Western%20Club%2C%20Glasgow.jpg,Stinglehammer,2017-09-16 01:07:02,2017,16,building,-4.25416,55.8614,N/A,Glasgow City,Lanarkshire
72 Charlotte Street,http://commons.wikimedia.org/wiki/Special:FilePath/Lady%20And%20St%20Francis%20Secondary%20School%20-%20view%20from%20SE.jpg,ArchHist,2018-09-10 15:30:57,2018,10,secondary school; school building,-4.24132,55.8536,N/A,Glasgow City,Lanarkshire
14 University Gardens,http://commons.wikimedia.org/wiki/Special:FilePath/14%20University%20Gardens%2C%20University%20of%20Glasgow.jpg,Lirazelf,2018-09-04 20:04:23,2018,4,building,-4.29074,55.8733,N/A,Glasgow City,Lanarkshire
Buckholm Tower,http://commons.wikimedia.org/wiki/Special:FilePath/Buckholm-tower01.jpg,Double Happiness,2017-09-29 09:13:58,2017,29,tower house,-2.82303,55.632,N/A,Scottish Borders,Roxburghshire
"27a, 29 St Vincent Place, Public House",http://commons.wikimedia.org/wiki/Special:FilePath/27a%2C%2029%20St%20Vincent%20Place%2C%20Public%20House.jpg,Stinglehammer,2017-09-16 01:13:20,2017,16,pub,-4.25328,55.8608,N/A,Glasgow City,Lanarkshire
"30 - 40 St Vincent Place, Clydesdale Bank Headquarters",http://commons.wikimedia.org/wiki/Special:FilePath/30%20-%2040%20St%20Vincent%20Place%2C%20Clydesdale%20Bank%20Headquarters.jpg,Stinglehammer,2017-09-16 01:09:44,2017,16,bank building,-4.25317,55.8614,N/A,Glasgow City,Lanarkshire
Sheriff Court,http://commons.wikimedia.org/wiki/Special:FilePath/Jedburgh%20Sheriff%27s%20Court.jpg,Victuallers,2018-09-05 12:32:17,2018,5,courthouse,-2.55565827,55.477352484,N/A,Scottish Borders,Roxburghshire
"Edinburgh, 28 Rutland Street",http://commons.wikimedia.org/wiki/Special:FilePath/28%20Rutland%20Sq.jpg,Spillerjzy,2017-09-23 15:01:34,2017,23,architectural structure,-3.20836,55.949,N/A,City of Edinburgh,Midlothian
"8, 10, 12 St George's Road",http://commons.wikimedia.org/wiki/Special:FilePath/8%2C%2010%2C%2012%20St%20George%27s%20Road.jpg,Stinglehammer,2017-09-17 11:41:18,2017,17,building,-4.2706,55.8665,N/A,Glasgow City,Lanarkshire
9 University Gardens,http://commons.wikimedia.org/wiki/Special:FilePath/9%20University%20Gardens%2C%20University%20of%20Glasgow.jpg,Lirazelf,2018-09-04 20:06:03,2018,4,building,-4.29047,55.8731,N/A,Glasgow City,Lanarkshire
"Kelso, Bridge Street, Ednam House",http://commons.wikimedia.org/wiki/Special:FilePath/Ednam%20room%20Kelso.jpg,Mainlymazza,2018-09-25 20:05:20,2018,25,architectural structure,-2.43451,55.5974,N/A,Scottish Borders,Roxburghshire
"43, 45, 47 Hope Street, Atlantic Chambers",http://commons.wikimedia.org/wiki/Special:FilePath/Atlantic%20Chambers%2C%20Hope%20Street%2C%20Glasgow.jpg,LornaMCampbell,2018-09-27 08:56:55,2018,27,building,-4.25952,55.8596,N/A,Glasgow City,Lanarkshire
"Fountainhall, Gate Piers",http://commons.wikimedia.org/wiki/Special:FilePath/Fountainhall%20North%20Gate%20Pier%2C%20facing%20in%20%28North%20West%29.jpg,Wilmm,2019-09-09 20:59:13,2019,9,architectural structure,-2.91898,55.8985,N/A,East Lothian,East Lothian
10 University Gardens,http://commons.wikimedia.org/wiki/Special:FilePath/10%20University%20Gardens%2C%20University%20of%20Glasgow.jpg,Lirazelf,2018-09-04 20:05:32,2018,4,building,-4.29058,55.8731,N/A,Glasgow City,Lanarkshire
"Dunfermline Abbey, 21 Maygate, Abbot's House",http://commons.wikimedia.org/wiki/Special:FilePath/AbbotsHouseDunfermline.jpg,Fmusani,2014-09-02 02:35:54,2014,2,architectural structure,-3.46277,56.0706,N/A,Fife,Fife
5 University Gardens,http://commons.wikimedia.org/wiki/Special:FilePath/5%20University%20Gardens%2C%20University%20of%20Glasgow.jpg,Lirazelf,2018-09-04 20:07:45,2018,4,building,-4.2898,55.8729,N/A,Glasgow City,Lanarkshire
"Edinburgh, 27 Royal Terrace",http://commons.wikimedia.org/wiki/Special:FilePath/Edinburgh%2C%2027%20Royal%20Terrace.jpg,Wilmm,2017-09-24 19:56:19,2017,24,terrace house,-3.17735,55.9567,N/A,City of Edinburgh,Midlothian
"Edinburgh, Stockbridge, 2 Dean Terrace",http://commons.wikimedia.org/wiki/Special:FilePath/Edinburgh%2C%20Stockbridge%2C%202%20Dean%20Terrace.jpg,Fredinburgh,2016-09-10 10:23:29,2016,10,terrace house,-3.20951,55.9579,N/A,City of Edinburgh,Midlothian
Tolbooth Steeple,http://commons.wikimedia.org/wiki/Special:FilePath/Tolbooth%20Steeple%2C%20Glasgow%20Cross.jpg,Glaspark,2019-09-20 18:00:33,2019,20,tower,-4.24365,55.8568,N/A,Glasgow City,Lanarkshire
"Edinburgh, 30 Royal Terrace",http://commons.wikimedia.org/wiki/Special:FilePath/Edinburgh%2C%2030%20Royal%20Terrace.jpg,Wilmm,2017-09-24 20:00:45,2017,24,terrace house,-3.17691,55.9566,N/A,City of Edinburgh,Midlothian
"Auchmacoy, Dovecot",http://commons.wikimedia.org/wiki/Special:FilePath/Auchmacoy%20Dovecot%2009.jpg,Sagaciousphil,2013-09-05 15:48:54,2013,5,dovecote,-2.01872,57.3732,N/A,Aberdeenshire,Aberdeenshire
"Culross, The Cross, Market Cross",http://commons.wikimedia.org/wiki/Special:FilePath/Market%20%28Mercat%29%20Cross%2003.jpg,Kristijrn,2017-09-20 04:06:02,2017,20,market cross,-3.62846,56.0556,N/A,Fife,Fife
Statue of John Moore,http://commons.wikimedia.org/wiki/Special:FilePath/Statue%20Of%20Sir%20John%20Moore.jpg,TomZoy,2016-09-29 10:47:03,2016,29,statue,-4.250375727,55.860921232,1819-01-01T00:00:00Z,Glasgow City,Lanarkshire
"Edinburgh, 25 Royal Terrace",http://commons.wikimedia.org/wiki/Special:FilePath/Edinburgh%2C%2025%20Royal%20Terrace.jpg,Wilmm,2017-09-24 19:54:16,2017,24,terrace house,-3.17764,55.9567,N/A,City of Edinburgh,Midlothian
"Edinburgh, 22 Regent Terrace",http://commons.wikimedia.org/wiki/Special:FilePath/22%20Regent%20Terrace.jpg,Spillerjzy,2017-09-23 15:35:31,2017,23,architectural structure,-3.1758,55.9552,N/A,City of Edinburgh,Midlothian
"Castle Street, Barony Parish Church, Retaining Wall, Railings And Gatepiers",http://commons.wikimedia.org/wiki/Special:FilePath/Castle%20Street%2C%20Barony%20Parish%20Church%2C%20Retaining%20Wall%2C%20Railings%20And%20Gatepiers.jpg,Stinglehammer,2017-09-24 22:59:22,2017,24,church building; architectural structure,-4.23697,55.8615,N/A,Glasgow City,Lanarkshire
"Jedburgh, 3 - 5 Exchange Street, Commercial Bank Of Scotland",http://commons.wikimedia.org/wiki/Special:FilePath/Now%20the%20council%20offices%20in%20Jedburgh.jpg,Victuallers,2018-09-01 11:02:09,2018,1,bank building,-2.55551,55.4779,N/A,Scottish Borders,Roxburghshire
"Edinburgh, 2, 3, 4 Rutland Square",http://commons.wikimedia.org/wiki/Special:FilePath/2%203%204%20Rutland%20Sq.jpg,Spillerjzy,2017-09-23 15:15:05,2017,23,architectural structure,-3.20823,55.9489,N/A,City of Edinburgh,Midlothian
Wedderlie House,http://commons.wikimedia.org/wiki/Special:FilePath/Sixth%20report%20and%20inventory%20of%20monuments%20and%20constructions%20in%20the%20county%20of%20Berwick%20%281915%29%20%2814758954456%29.jpg,SteinsplitterBot,2015-09-07 10:00:57,2015,7,building,-2.5761,55.7558,N/A,Scottish Borders,Berwickshire
Glendoick House,http://commons.wikimedia.org/wiki/Special:FilePath/Glendoick%20House%20%28geograph%201871658%29.jpg,Plucas58,2017-09-30 10:12:46,2017,30,tower house; country house,-3.285515827,56.398028012,N/A,Perth and Kinross,Perthshire
Port House,http://commons.wikimedia.org/wiki/Special:FilePath/11%20Exchange%20note%20the%20windows.jpg,Victuallers,2018-09-04 13:19:56,2018,4,commercial building,-2.55586,55.4781,N/A,Scottish Borders,Roxburghshire
Kelso Bridge Toll house,http://commons.wikimedia.org/wiki/Special:FilePath/Bridge%20End%20Cottage%2C%20Kelso%20Bridge%20Toll%20House%20%28geograph%204758405%29.jpg,Victuallers,2018-09-14 10:45:47,2018,14,tollhouse,-2.43281,55.5959,N/A,Scottish Borders,Roxburghshire
"Paisley, Anchor Thread Works, Domestic Finishing Mill",http://commons.wikimedia.org/wiki/Special:FilePath/Anchor%20Mills%2C%20Paisley%2001.JPG,Otternose,2013-09-28 18:36:35,2013,28,mill building,-4.41843,55.8419,N/A,Renfrewshire,Renfrewshire
"Longside, Old Parish Church",http://commons.wikimedia.org/wiki/Special:FilePath/Old%20Parish%20Church%2C%20Longside%2003.jpg,Sagaciousphil,2013-09-02 18:29:04,2013,2,church building,-1.93916,57.5152,N/A,Aberdeenshire,Aberdeenshire
"Edinburgh, 14 Rutland Square",http://commons.wikimedia.org/wiki/Special:FilePath/14%20Rutland%20Sq.jpg,Spillerjzy,2017-09-23 15:09:38,2017,23,architectural structure,-3.20924,55.9482,N/A,City of Edinburgh,Midlothian
"Edinburgh, 26 Regent Terrace",http://commons.wikimedia.org/wiki/Special:FilePath/26%20Regent%20Terrace.jpg,Spillerjzy,2017-09-23 15:29:14,2017,23,terrace house,-3.17534,55.9553,N/A,City of Edinburgh,Midlothian
"Crieff, 30, 32, 34, 36, 38, 40 High Street",http://commons.wikimedia.org/wiki/Special:FilePath/Avanti%20Restaurant%2C%20High%20Street%20%28geograph%204132659%29.jpg,Plucas58,2017-09-30 19:02:38,2017,30,architectural structure,-3.8394,56.3728,N/A,Perth and Kinross,Perthshire
"University Avenue, University Of Glasgow, Reading Room",http://commons.wikimedia.org/wiki/Special:FilePath/University%20Of%20Glasgow%20Reading%20Room%2C%20University%20Avenue.jpg,Lirazelf,2018-09-11 15:28:25,2018,11,reading room,-4.28805,55.8727,N/A,Glasgow City,Lanarkshire
"Edinburgh, 11 - 13 South Charlotte Street",http://commons.wikimedia.org/wiki/Special:FilePath/DSCN2116%2011%20South%20Charlotte%20Street.jpg,AlasdairW,2018-09-30 21:37:39,2018,30,architectural structure,-3.20584,55.9511,N/A,City of Edinburgh,Midlothian
"Edinburgh, 21 Royal Terrace",http://commons.wikimedia.org/wiki/Special:FilePath/Edinburgh%2C%2021%20Royal%20Terrace.jpg,Wilmm,2017-09-24 19:50:23,2017,24,terrace house,-3.17817,55.9567,N/A,City of Edinburgh,Midlothian
"Hamilton, Hamilton Parish Church, Covenanter Martyrs Memorial",http://commons.wikimedia.org/wiki/Special:FilePath/Covenanter%20Martyrs%20Memorial.jpg,Nimphh,2020-09-08 21:40:57,2020,8,memorial,-4.0366,55.7761,N/A,South Lanarkshire,Lanarkshire
"Edinburgh, 11 Rutland Square",http://commons.wikimedia.org/wiki/Special:FilePath/11%20Rutland%20Sq.jpg,Spillerjzy,2017-09-23 15:11:02,2017,23,architectural structure,-3.20886,55.9483,N/A,City of Edinburgh,Midlothian
"Edinburgh, 27 Rutland Street",http://commons.wikimedia.org/wiki/Special:FilePath/Edinburgh%2C%2027%20Rutland%20Street.jpg,Spillerjzy,2017-09-23 14:41:51,2017,23,architectural structure,-3.20883,55.9492,N/A,City of Edinburgh,Midlothian
"Edinburgh, 20 Royal Terrace",http://commons.wikimedia.org/wiki/Special:FilePath/Edinburgh%2C%2020%20Royal%20Terrace.jpg,Wilmm,2017-09-24 17:59:14,2017,24,terrace house,-3.17832,55.9567,N/A,City of Edinburgh,Midlothian
"Edinburgh, 28 Royal Terrace",http://commons.wikimedia.org/wiki/Special:FilePath/Edinburgh%2C%2028%20Royal%20Terrace.jpg,Wilmm,2017-09-24 19:57:57,2017,24,terrace house,-3.17719,55.9567,N/A,City of Edinburgh,Midlothian
"Edinburgh, 16 Carlton Terrace",http://commons.wikimedia.org/wiki/Special:FilePath/Edinburgh%2C%2016%20Carlton%20Terrace.jpg,Wilmm,2017-09-24 20:21:53,2017,24,terrace house,-3.17453,55.9566,N/A,City of Edinburgh,Midlothian
"1-7 George Square, General Post Office",http://commons.wikimedia.org/wiki/Special:FilePath/1-7%20George%20Square%2C%20General%20Post%20Office.jpg,Stinglehammer,2017-09-16 02:07:48,2017,16,building,-4.24988,55.8604,N/A,Glasgow City,Lanarkshire
"Royal Exchange Square, Royal Bank Of Scotland",http://commons.wikimedia.org/wiki/Special:FilePath/Royal%20Bank%20of%20Scotland%202013-09-17%2012-32-00.jpg,Leela0808,2013-09-17 12:43:43,2013,17,bank building,-4.25353,55.8603,N/A,Glasgow City,Lanarkshire
"Borthwick Castle, Gatehouse",http://commons.wikimedia.org/wiki/Special:FilePath/Borthwick%20Castle%2C%20Gatehouse%2003.jpg,DougRM,2018-09-21 17:43:33,2018,21,gatehouse,-3.00774,55.8264,N/A,Midlothian,Midlothian
4 University Gardens,http://commons.wikimedia.org/wiki/Special:FilePath/4%20University%20Gardens%2C%20University%20of%20Glasgow.jpg,Lirazelf,2018-09-04 20:08:49,2018,4,building,-4.28965,55.8728,N/A,Glasgow City,Lanarkshire
St John The Evangelist's Episcopal Church,http://commons.wikimedia.org/wiki/Special:FilePath/Scottish%20church%20in%20Jedburgh.jpg,Victuallers,2018-09-04 15:12:01,2018,4,church building,-2.55382,55.4814,N/A,Scottish Borders,Roxburghshire
"Denholm, Westgate Hall",http://commons.wikimedia.org/wiki/Special:FilePath/Westgate%20Hall%20in%20Denholm%20in%202020%2004.jpg,Victuallers,2020-09-12 17:17:33,2020,12,house,-2.684825965,55.456695719,N/A,Scottish Borders,Roxburghshire
"Edinburgh, 36 Royal Terrace",http://commons.wikimedia.org/wiki/Special:FilePath/Edinburgh%2C%2036%20Royal%20Terrace.jpg,Wilmm,2017-09-24 20:10:18,2017,24,terrace house,-3.17594,55.9566,N/A,City of Edinburgh,Midlothian
Equestrian statue of Prince Albert,http://commons.wikimedia.org/wiki/Special:FilePath/George%20Square%2C%20Statue%20Of%20Queen%20Victoria.jpg,Stinglehammer,2017-09-19 00:35:48,2017,19,sculpture,-4.251156533,55.861158594,1866-01-01T00:00:00Z,Glasgow City,Lanarkshire
"Castle Street, Barony Parish Church",http://commons.wikimedia.org/wiki/Special:FilePath/Castle%20Street%2C%20Barony%20Parish%20Church.jpg,Stinglehammer,2017-09-24 23:01:45,2017,24,church building; building,-4.237,55.8619,N/A,Glasgow City,Lanarkshire
"Edinburgh, 94 - 116 Cowgate, Society Of Solicitors' Library",http://commons.wikimedia.org/wiki/Special:FilePath/94%20-%20116%20Cowgate%20Edinburgh.jpg,Kangarooth,2018-09-06 13:25:54,2018,6,library,-3.19051,55.9485,N/A,City of Edinburgh,Midlothian
"Castle Street, Barony Parish Church, War Memorial",http://commons.wikimedia.org/wiki/Special:FilePath/Castle%20Street%2C%20Barony%20Parish%20Church%2C%20War%20Memorial.jpg,Drkirstyross,2023-09-19 20:29:02,2023,19,war memorial,-4.23699,55.8616,N/A,Glasgow City,Lanarkshire
"Edinburgh, 34 Royal Terrace",http://commons.wikimedia.org/wiki/Special:FilePath/Edinburgh%2C%2034%20Royal%20Terrace.jpg,Wilmm,2017-09-24 20:06:51,2017,24,terrace house,-3.17626,55.9566,N/A,City of Edinburgh,Midlothian
"Edinburgh, 12 South Charlotte Street",http://commons.wikimedia.org/wiki/Special:FilePath/12%20South%20Charlotte%20Street%202013-09-03%2012-52-12.jpg,Bridawg,2013-09-03 11:54:33,2013,3,tenement,-3.20654,55.951,N/A,City of Edinburgh,Midlothian
6 University Gardens,http://commons.wikimedia.org/wiki/Special:FilePath/6%20University%20Gardens%2C%20University%20of%20Glasgow.jpg,Lirazelf,2018-09-04 20:07:21,2018,4,building,-4.28999,55.8729,N/A,Glasgow City,Lanarkshire
"Edinburgh, 22 Royal Terrace",http://commons.wikimedia.org/wiki/Special:FilePath/Edinburgh%2C%2022%20Royal%20Terrace.jpg,Wilmm,2017-09-24 19:52:22,2017,24,terrace house,-3.17806,55.9567,N/A,City of Edinburgh,Midlothian
Fountainhall,http://commons.wikimedia.org/wiki/Special:FilePath/Fountainhall%2C%20South%20East%20Facade.jpg,Wilmm,2019-09-09 22:05:56,2019,9,country house,-2.91857,55.8991,N/A,East Lothian,East Lothian
Statue of James Watt,http://commons.wikimedia.org/wiki/Special:FilePath/Statue%20Of%20James%20Watt.jpg,TomZoy,2016-09-29 10:41:02,2016,29,statue,-4.25123,55.861,1832-01-01T00:00:00Z,Glasgow City,Lanarkshire
"Tolbooth, Tain Sheriff Court",http://commons.wikimedia.org/wiki/Special:FilePath/Tain%20tolbooth.jpg,Lady-shirakawa,2018-09-25 14:20:26,2018,25,courthouse,-4.05498,57.812,N/A,Highland,Ross-shire
"Edinburgh, 40 Royal Terrace",http://commons.wikimedia.org/wiki/Special:FilePath/Edinburgh%2C%2040%20Royal%20Terrace.jpg,Wilmm,2017-09-24 20:16:46,2017,24,terrace house,-3.17532,55.9566,N/A,City of Edinburgh,Midlothian
157-167 Hope Street,http://commons.wikimedia.org/wiki/Special:FilePath/157-167%20Hope%20Street%2C%20Glasgow.jpg,Stinglehammer,2017-09-19 00:20:21,2017,19,building,-4.25854,55.8623,N/A,Glasgow City,Lanarkshire
"Edinburgh, 37 Royal Terrace",http://commons.wikimedia.org/wiki/Special:FilePath/Edinburgh%2C%2037%20Royal%20Terrace.jpg,Wilmm,2017-09-24 20:12:16,2017,24,terrace house,-3.17578,55.9566,N/A,City of Edinburgh,Midlothian
Brodick Castle,http://commons.wikimedia.org/wiki/Special:FilePath/Brodick%20Castle%20August%202012.JPG,Grazzer,2014-09-16 15:07:14,2014,16,castle,-5.1509,55.5939,N/A,North Ayrshire,Buteshire
"Edinburgh, 6 Regent Terrace",http://commons.wikimedia.org/wiki/Special:FilePath/6%20Regent%20Terr.jpg,Spillerjzy,2017-09-23 15:53:37,2017,23,terrace house,-3.17764,55.9544,N/A,City of Edinburgh,Midlothian
"Edinburgh, 39 Royal Terrace",http://commons.wikimedia.org/wiki/Special:FilePath/Edinburgh%2C%2039%20Royal%20Terrace.jpg,Wilmm,2017-09-24 20:15:24,2017,24,terrace house,-3.17548,55.9566,N/A,City of Edinburgh,Midlothian
"Crieff, Comrie Street, South United Free Church",http://commons.wikimedia.org/wiki/Special:FilePath/Crieff%20War%20Memorial%20%28geograph%202673584%29.jpg,Plucas58,2017-09-30 16:19:12,2017,30,church building,-3.84326,56.3746,N/A,Perth and Kinross,Perthshire
"Gartloch Hospital, Workshop, North Block",http://commons.wikimedia.org/wiki/Special:FilePath/Gartloch%20Hospital%2C%20Workshop%2CNorth%20Block.jpg,Waldemar Luczak,2018-09-06 09:22:14,2018,6,architectural structure,-4.10404,55.88,N/A,Glasgow City,Lanarkshire
"Gartloch Hospital, Boiler House, Chimney",http://commons.wikimedia.org/wiki/Special:FilePath/Gartloch%20Hospital%2C%20Boiler%20House%2C%20Chimney.jpg,Waldemar Luczak,2018-09-06 09:26:00,2018,6,architectural structure,-4.10471,55.8792,N/A,Glasgow City,Lanarkshire
"Edinburgh, 98 Grassmarket",http://commons.wikimedia.org/wiki/Special:FilePath/Corner%20of%20Grassmarket%20and%20West%20Bow%2C%20Edinburgh.jpg,Simpcol85,2018-09-02 14:02:11,2018,2,tenement,-3.19477,55.948,N/A,City of Edinburgh,Midlothian
"Dalkeith House, Dark Walk, Gateway",http://commons.wikimedia.org/wiki/Special:FilePath/Dalkeith%20House%20Dark%20Walk%20Gateway.jpg,Yarnoverhook,2020-09-28 08:30:58,2020,28,architectural structure,-3.05964,55.8975,N/A,Midlothian,Midlothian
"Ballindalloch, River Spey, Railway Bridge",http://commons.wikimedia.org/wiki/Special:FilePath/Detail%20of%20old%20railway%20bridge%2C%20Ballindalloch%20%28geograph%205020165%29.jpg,Plucas58,2017-09-27 23:50:31,2017,27,railway bridge,-3.38546,57.4139,1863-01-01T00:00:00Z,Moray,Banffshire
"25-27 Cook Street, Eglinton Engine Works",http://commons.wikimedia.org/wiki/Special:FilePath/Glasgow%20City%20-%2025-27%20Cook%20Street%2C%20Eglinton%20Engine%20Works%20-%2020210726081500.jpg,Dbrooke1829,2022-09-18 11:11:16,2022,18,architectural structure,-4.26492,55.8508,N/A,Glasgow City,Lanarkshire
"Dingwall, Church Street, St Clement's Church Of Scotland Parish Church",http://commons.wikimedia.org/wiki/Special:FilePath/St%20Clements%20Churchyard%20%28geograph%202068035%29.jpg,File Upload Bot (Magnus Manske),2013-09-03 21:34:40,2013,3,church building,-4.42891,57.5973,N/A,Highland,Ross-shire
22 George Square,http://commons.wikimedia.org/wiki/Special:FilePath/Edinburgh%2C%2022%20George%20Square.jpg,Stinglehammer,2017-09-28 22:24:27,2017,28,architectural structure,-3.19055,55.9435,N/A,City of Edinburgh,Midlothian
"Edinburgh, 17-19 Gardner's Crescent",http://commons.wikimedia.org/wiki/Special:FilePath/Edinburgh%20-%20Edinburgh%2C%2017-19%20Gardner%27s%20Crescent%20-%2020170911190556.jpg,Ammienoot,2017-09-13 19:46:04,2017,13,architectural structure,-3.20946,55.9451,N/A,City of Edinburgh,Midlothian
Sandside Harbour,http://commons.wikimedia.org/wiki/Special:FilePath/Sandside%20Harbour%20and%20slipway%20%28geograph%202569148%29.jpg,File Upload Bot (Magnus Manske),2013-09-03 15:06:18,2013,3,harbor,-3.79287,58.5701,N/A,Highland,Caithness
Knockando Woolmill,http://commons.wikimedia.org/wiki/Special:FilePath/Open%20space%20around%20the%20buildings%20of%20Knockando%20Woollen%20Mill%20%28geograph%205543176%29.jpg,Plucas58,2017-09-28 12:50:56,2017,28,watermill,-3.35542,57.4661,N/A,Moray,Morayshire
"681 Alexandra Parade, St Andrew's East Church",http://commons.wikimedia.org/wiki/Special:FilePath/St%20Andrews%20East%20Church.jpg,CraigIW,2013-09-09 15:20:28,2013,9,church building,-4.208583,55.863111,N/A,Glasgow City,Lanarkshire
"Edinburgh, 23 Elm Row",http://commons.wikimedia.org/wiki/Special:FilePath/Edinburgh%2C%2023%20Elm%20Row.jpg,Wilmm,2017-09-24 16:54:15,2017,24,pub,-3.18301,55.959,N/A,City of Edinburgh,Midlothian
"Crow Road, Anniesland Court (linking Terrace With Mall Below)",http://commons.wikimedia.org/wiki/Special:FilePath/Anniesland%20Court%20from%20Crow%20Road.JPG,AlasdairW,2015-09-23 22:59:06,2015,23,high-rise building,-4.32515,55.8909,N/A,Glasgow City,Renfrewshire
"Edinburgh, 14-16 Gardner's Crescent",http://commons.wikimedia.org/wiki/Special:FilePath/Edinburgh%20-%20Edinburgh%2C%2014-16%20Gardner%27s%20Crescent%20-%2020170911190617.jpg,Ammienoot,2017-09-13 19:48:30,2017,13,architectural structure,-3.20959,55.9453,N/A,City of Edinburgh,Midlothian
"Edinburgh, 23a, 23b George Square",http://commons.wikimedia.org/wiki/Special:FilePath/Edinburgh%2C%2023a%2C%2023b%20George%20Square.jpg,Stinglehammer,2017-09-28 22:26:52,2017,28,architectural structure,-3.19055,55.9434,N/A,City of Edinburgh,Midlothian
Craigmin Bridge,http://commons.wikimedia.org/wiki/Special:FilePath/Craigmin%20Bridge%20%28geograph%205229829%29.jpg,Plucas58,2017-09-28 13:20:19,2017,28,road bridge; stone arch bridge; two-tier bridge,-2.93807,57.6456,1700-01-01T00:00:00Z,Moray,Banffshire
"140, 142 St Vincent Street, Royal Bank Building",http://commons.wikimedia.org/wiki/Special:FilePath/140%2C%20142%20St%20Vincent%20Street%2C%20Glasgow.jpg,Stinglehammer,2018-09-09 18:59:13,2018,9,building,-4.25852,55.8619,N/A,Glasgow City,Lanarkshire
Dunkeld Bridge,http://commons.wikimedia.org/wiki/Special:FilePath/Dunkeld%20Bridge.jpg,Ammienoot,2018-09-04 07:07:58,2018,4,road bridge,-3.58525,56.563944,1809-01-01T00:00:00Z,Perth and Kinross,Perthshire
"Edinburgh, 3-4 Gardner's Crescent",http://commons.wikimedia.org/wiki/Special:FilePath/Edinburgh%20-%20Edinburgh%2C%203-4%20Gardner%27s%20Crescent%20-%2020170911190915.jpg,Ammienoot,2017-09-13 19:52:13,2017,13,architectural structure,-3.21034,55.9457,N/A,City of Edinburgh,Midlothian
"Crow Road, Anniesland Court (linking Terrace With Mall Below)",http://commons.wikimedia.org/wiki/Special:FilePath/Anniesland%20Court%20from%20Crow%20Road.JPG,AlasdairW,2015-09-23 22:59:06,2015,23,high-rise building,-4.32508,55.8908,N/A,Glasgow City,Renfrewshire
"Edinburgh, 5-7 Gardner's Crescent",http://commons.wikimedia.org/wiki/Special:FilePath/Edinburgh%20-%20Edinburgh%2C%205-7%20Gardner%27s%20Crescent%20-%2020170911190740.jpg,Ammienoot,2017-09-13 19:51:12,2017,13,architectural structure,-3.21024,55.9455,N/A,City of Edinburgh,Midlothian
"Edinburgh, 17 Warriston Crescent",http://commons.wikimedia.org/wiki/Special:FilePath/City%20of%20Edinburgh%20-%20Edinburgh%2C%2017%20Warriston%20Crescent%20-%2020230929174454.jpg,AlasdairW,2023-09-29 20:56:18,2023,29,terrace house,-3.19974,55.9642,N/A,City of Edinburgh,Midlothian
"Crow Road, Anniesland Court (linking Terrace With Mall Below)",http://commons.wikimedia.org/wiki/Special:FilePath/Anniesland%20Court%20from%20Crow%20Road.JPG,AlasdairW,2015-09-23 22:59:06,2015,23,high-rise building,-4.32536,55.8909,N/A,Glasgow City,Renfrewshire
"Edinburgh, 2 Walker Street",http://commons.wikimedia.org/wiki/Special:FilePath/12-22%20COATES%20CRESCENT.JPG,Alexander Khokhlov,2013-09-29 16:31:29,2013,29,terrace house,-3.213,55.9486,N/A,City of Edinburgh,Midlothian
"144, 146 West George Street, The New Club",http://commons.wikimedia.org/wiki/Special:FilePath/144%20West%20George%20Street%2C%20Glasgow.jpg,LornaMCampbell,2019-09-29 22:40:59,2019,29,building,-4.25725,55.8627,N/A,Glasgow City,Lanarkshire
"Edinburgh, 2, 3, Elm Row",http://commons.wikimedia.org/wiki/Special:FilePath/Edinburgh%2C%202%2C%203%2C%20Elm%20Row.jpg,Wilmm,2017-09-24 16:06:49,2017,24,architectural structure,-3.18381,55.9581,N/A,City of Edinburgh,Midlothian
"Newhailes House, Musselburgh",http://commons.wikimedia.org/wiki/Special:FilePath/Newhailes%20House.jpg,Gweduni,2017-09-30 13:09:01,2017,30,architectural structure; country house,-3.07921,55.9409,N/A,East Lothian,Midlothian
"Edinburgh, 27 George Square",http://commons.wikimedia.org/wiki/Special:FilePath/Edinburgh%2C%2027%20George%20Square.jpg,Stinglehammer,2017-09-28 22:02:52,2017,28,architectural structure,-3.19029,55.9429,N/A,City of Edinburgh,Midlothian
"Edinburgh, 26 George Square",http://commons.wikimedia.org/wiki/Special:FilePath/Edinburgh%2C%2026%20George%20Square.jpg,Stinglehammer,2017-09-28 22:39:11,2017,28,architectural structure,-3.19034,55.943,N/A,City of Edinburgh,Midlothian
"Linlithgow, Edinburgh Road, 4-5 Kingscavil Cottages",http://commons.wikimedia.org/wiki/Special:FilePath/Kottages.jpg,Ged The Gael,2019-09-25 12:10:47,2019,25,cottage,-3.55525,55.9715,N/A,West Lothian,West Lothian
"Edinburgh, 55 George Square",http://commons.wikimedia.org/wiki/Special:FilePath/Edinburgh%20-%20Edinburgh%2C%2055%20George%20Square%20-%2020140421175207.jpg,Enric,2018-09-18 22:52:37,2018,18,architectural structure,-3.1872,55.944,N/A,City of Edinburgh,Midlothian
Canisbay Parish Church,http://commons.wikimedia.org/wiki/Special:FilePath/Canisbay%20Parish%20Church%2C%20Kirkstyle%2C%20Caithness%20-%20geograph-3644361.jpg,Geograph Update Bot,2017-09-17 17:07:39,2017,17,church building,-3.13259,58.6386,N/A,Highland,Caithness
"Ballindalloch Castle, Dovecot",http://commons.wikimedia.org/wiki/Special:FilePath/Ballindalloch%20Castle-%20The%20Dovecote%20%28geograph%205032739%29.jpg,Plucas58,2017-09-27 23:22:05,2017,27,dovecote,-3.37087,57.4135,N/A,Moray,Morayshire
"110, 120 St Vincent Street, Bank Of Scotland",http://commons.wikimedia.org/wiki/Special:FilePath/Composite%20view%20of%20the%20Union%20Bank%20of%20Scotland%20building%2C%20Glasgow.jpg,ArchHist,2018-09-01 10:48:47,2018,1,building,-4.25709,55.8619,N/A,Glasgow City,Lanarkshire
"Strathmiglo, High Street, Town House",http://commons.wikimedia.org/wiki/Special:FilePath/The%20Tolbooth%20at%20Strathmiglo%20-%20geograph.org.uk%20-%202676337.jpg,GeographBot,2021-09-24 17:51:36,2021,24,architectural structure,-3.26952,56.2781,N/A,Fife,Fife
"Edinburgh, Dean Village, Damside, Well Court, General",http://commons.wikimedia.org/wiki/Special:FilePath/DSCN6828%20Well%20Court%20Dean%20Village.jpg,AlasdairW,2020-09-29 21:50:45,2020,29,architectural structure,-3.21778,55.9522,N/A,City of Edinburgh,Midlothian
Achingale Mill,http://commons.wikimedia.org/wiki/Special:FilePath/Achingale%20Mill%20%28geograph%202020288%29.jpg,File Upload Bot (Magnus Manske),2013-09-03 14:42:45,2013,3,watermill,-3.30342,58.4629,N/A,Highland,Caithness
"Cromarty, Marine Terrace, The Harbour",http://commons.wikimedia.org/wiki/Special:FilePath/Cromarty%20Harbour%201.jpg,Lirazelf,2019-09-20 16:41:28,2019,20,harbor,-4.03865,57.6829,N/A,Highland,Cromartyshire
"Edinburgh, Stockbridge, 1-1a Dean Terrace",http://commons.wikimedia.org/wiki/Special:FilePath/Edinburgh%2C%20Stockbridge%2C%201-1a%20Dean%20Terrace.jpg,Fredinburgh,2016-09-10 10:19:15,2016,10,architectural structure,-3.20933,55.958,N/A,City of Edinburgh,Midlothian
"Edinburgh, 18 George Square",http://commons.wikimedia.org/wiki/Special:FilePath/Edinburgh%2C%2018%20George%20Square.jpg,Stinglehammer,2017-09-28 22:08:20,2017,28,architectural structure,-3.19069,55.9438,N/A,City of Edinburgh,Midlothian
"Edinburgh, 14 Oswald Road",http://commons.wikimedia.org/wiki/Special:FilePath/14%20Oswald%20Road.JPG,ToyHorse,2013-09-14 12:46:26,2013,14,architectural structure,-3.19377,55.9273,N/A,City of Edinburgh,Midlothian
Rosskeen Parish Church,http://commons.wikimedia.org/wiki/Special:FilePath/Rosskeen%20Parish%20Church%20%28geograph%202089620%29.jpg,File Upload Bot (Magnus Manske),2013-09-03 15:31:53,2013,3,church building,-4.20208,57.6939,N/A,Highland,Ross-shire
"Crow Road, Anniesland Court (three Storey Block)",http://commons.wikimedia.org/wiki/Special:FilePath/Anniesland%20Court%20from%20Crow%20Road.JPG,AlasdairW,2015-09-23 22:59:06,2015,23,architectural structure,-4.32497,55.8906,N/A,Glasgow City,Lanarkshire
"Pollokshaws Road, Pollok Park, Pollok House, Eastern Garden Pavilion",http://commons.wikimedia.org/wiki/Special:FilePath/Pollok%20House%2C%20Eastern%20Garden%20Pavilion%201.jpg,LornaMCampbell,2020-09-29 21:44:20,2020,29,architectural structure,-4.31784,55.8276,N/A,Glasgow City,Renfrewshire
"Tombae, Roman Catholic Church Of The Incarnation",http://commons.wikimedia.org/wiki/Special:FilePath/Church%20of%20the%20Incarnation%2C%20Tombae%20%28geograph%201888342%29.jpg,Plucas58,2017-09-27 23:59:03,2017,27,church building,-3.30121,57.315,N/A,Moray,Banffshire
"Edinburgh, 8-10 Gardner's Crescent",http://commons.wikimedia.org/wiki/Special:FilePath/Edinburgh%20-%20Edinburgh%2C%208-10%20Gardner%27s%20Crescent%20-%2020170911190711.jpg,Ammienoot,2017-09-13 19:49:42,2017,13,architectural structure,-3.21,55.9454,N/A,City of Edinburgh,Midlothian
"Edinburgh, 1 Warriston Crescent",http://commons.wikimedia.org/wiki/Special:FilePath/City%20of%20Edinburgh%20-%20Edinburgh%2C%201%20Warriston%20Crescent%20-%2020230929174134.jpg,AlasdairW,2023-09-29 20:21:19,2023,29,tenement,-3.20022,55.9632,N/A,City of Edinburgh,Midlothian
"Lewis, Stornoway, Lews Castle, Cuddy Point Sea Wall And Slipway",http://commons.wikimedia.org/wiki/Special:FilePath/Cuddy%20Point%20Sea%20Wall%2C%20Stornoway%2C%20Isle%20of%20Lewis.jpg,LornaMCampbell,2017-09-28 23:03:25,2017,28,architectural structure,-6.39519,58.208,N/A,Outer Hebrides,Ross-shire
"Edinburgh, 2 Gardner's Crescent",http://commons.wikimedia.org/wiki/Special:FilePath/Edinburgh%20-%20Edinburgh%2C%202%20Gardner%27s%20Crescent%20-%2020170911190952.jpg,Ammienoot,2017-09-13 19:53:18,2017,13,architectural structure,-3.21043,55.9458,N/A,City of Edinburgh,Midlothian
"Edinburgh, Dean Village, Damside, 1 Well Court, Woodbarn Hall With Clock Tower",http://commons.wikimedia.org/wiki/Special:FilePath/DSCN6826%20Woodbarn%20Hall%20With%20Clock%20Tower%201%20Well%20Court%20Dean%20Village.jpg,AlasdairW,2020-09-29 21:22:18,2020,29,architectural structure,-3.21746,55.9521,N/A,City of Edinburgh,Midlothian
Govan Graving Docks,http://commons.wikimedia.org/wiki/Special:FilePath/Glasgow%2C%20Govan%20Graving%20Docks%20%28IMGP8403%20v1%29.png,Iroberts696,2017-09-08 14:35:05,2017,8,dock,-4.30092,55.8608,N/A,Glasgow City,Lanarkshire
"Edinburgh, 23 Warriston Crescent",http://commons.wikimedia.org/wiki/Special:FilePath/City%20of%20Edinburgh%20-%20Edinburgh%2C%2023%20Warriston%20Crescent%20-%2020230929174552.jpg,AlasdairW,2023-09-29 20:48:57,2023,29,terrace house,-3.19958,55.9646,N/A,City of Edinburgh,Midlothian
Newbattle Abbey House,http://commons.wikimedia.org/wiki/Special:FilePath/Newbattle%20Abbey%20College%2C%20entrance%20area.jpg,Drkirstyross,2020-09-05 22:30:49,2020,5,architectural structure,-3.06702,55.8827,N/A,Midlothian,Midlothian
"Edinburgh, 49-51 Albany Street",http://commons.wikimedia.org/wiki/Special:FilePath/City%20of%20Edinburgh%20-%20Edinburgh%2C%2049-51%20Albany%20Street%20-%2020220924151810.jpg,AlasdairW,2022-09-25 22:20:50,2022,25,terrace house,-3.18958,55.9573,N/A,City of Edinburgh,Midlothian
"Edinburgh, 4 Elm Row",http://commons.wikimedia.org/wiki/Special:FilePath/Edinburgh%2C%204%20Elm%20Row.jpg,Wilmm,2017-09-24 16:15:04,2017,24,architectural structure,-3.18371,55.9582,N/A,City of Edinburgh,Midlothian
"Ardelve, 12 Lower Ardelve",http://commons.wikimedia.org/wiki/Special:FilePath/Old%20houses%20at%20Lower%20Ardelve%20%28geograph%203049656%29.jpg,File Upload Bot (Magnus Manske),2013-09-10 18:39:00,2013,10,architectural structure,-5.52861,57.28102,N/A,Highland,Ross-shire
"Edinburgh, 20, 21, 22 Elm Row, Post Office",http://commons.wikimedia.org/wiki/Special:FilePath/Edinburgh%2C%2020%2C%2021%2C%2022%20Elm%20Row%2C%20Post%20Office.jpg,Wilmm,2017-09-24 16:29:42,2017,24,architectural structure,-3.18312,55.9589,N/A,City of Edinburgh,Midlothian
"Alexandra Parade, Alexandra Park, Cast Iron Fountain",http://commons.wikimedia.org/wiki/Special:FilePath/Alexandra%20Park%20cast%20iron%20fountain.jpg,Mmhkk,2017-09-30 21:04:17,2017,30,fountain,-4.20828,55.8645,N/A,Glasgow City,Lanarkshire
"Edinburgh, 7 Warriston Crescent",http://commons.wikimedia.org/wiki/Special:FilePath/City%20of%20Edinburgh%20-%20Edinburgh%2C%207%20Warriston%20Crescent%20-%2020230929174238.jpg,AlasdairW,2023-09-29 20:24:38,2023,29,terrace house,-3.20002,55.9636,N/A,City of Edinburgh,Midlothian
Grecian Chambers,http://commons.wikimedia.org/wiki/Special:FilePath/336-356%20Sauchiehall%20Street%2C%20Grecian%20Chambers.jpg,Stinglehammer,2017-09-18 23:55:43,2017,18,building,-4.26506,55.8658,N/A,Glasgow City,Lanarkshire
"Edinburgh, 15, 16, 17 Elm Row",http://commons.wikimedia.org/wiki/Special:FilePath/Edinburgh%2C%2015%2C%2016%2C%2017%20Elm%20Row.jpg,Wilmm,2017-09-24 16:23:57,2017,24,architectural structure,-3.18331,55.9587,N/A,City of Edinburgh,Midlothian
"Edinburgh, 21 George Square",http://commons.wikimedia.org/wiki/Special:FilePath/Edinburgh%2C%2021%20George%20Square.jpg,Stinglehammer,2017-09-28 22:21:02,2017,28,architectural structure,-3.1906,55.9436,N/A,City of Edinburgh,Midlothian
"Pollokshaws Road, Pollok Park, Pollok House, Western Garden Pavilion",http://commons.wikimedia.org/wiki/Special:FilePath/Pollok%20House%2C%20Western%20Garden%20Pavilion%201.jpg,LornaMCampbell,2020-09-29 21:58:22,2020,29,pavilion,-4.31886,55.8279,N/A,Glasgow City,Renfrewshire
Springburn Winter Garden,http://commons.wikimedia.org/wiki/Special:FilePath/Winter%20Gardens%2C%20Springburn%20Park.jpg,Davidw82,2013-09-01 23:10:56,2013,1,winter garden,-4.22704,55.889,N/A,Glasgow City,Lanarkshire
"Edinburgh, 16 Warriston Crescent",http://commons.wikimedia.org/wiki/Special:FilePath/City%20of%20Edinburgh%20-%20Edinburgh%2C%2016%20Warriston%20Crescent%20-%2020230929174444.jpg,AlasdairW,2023-09-29 20:57:22,2023,29,terrace house,-3.19975,55.9641,N/A,City of Edinburgh,Midlothian
Tarbat House And Stables,http://commons.wikimedia.org/wiki/Special:FilePath/Remains%20of%20Tarbat%20House%20%28geograph%202089699%29.jpg,File Upload Bot (Magnus Manske),2013-09-02 00:08:43,2013,2,country house,-4.067254492,57.735340064,N/A,Highland,Cromartyshire
60 George Square,http://commons.wikimedia.org/wiki/Special:FilePath/Edinburgh%20-%20Edinburgh%2C%2060%20George%20Square%20-%2020140421175303.jpg,Enric,2018-09-18 22:51:50,2018,18,university building,-3.18737,55.9444,N/A,City of Edinburgh,Midlothian
"Cromarty, Church Street, Hugh Miller's Cottage",http://commons.wikimedia.org/wiki/Special:FilePath/Hugh%20Miller%27s%20Cottage%2C%20Cromarty%2002.jpg,Braveheart,2016-09-20 18:50:48,2016,20,cottage,-4.03079,57.68,N/A,Highland,Cromartyshire
"Edinburgh, 139 - 140 Princes Street",http://commons.wikimedia.org/wiki/Special:FilePath/Tourist%20shops.jpg,EugenStoica,2019-09-20 20:39:17,2019,20,shop; tenement,-3.20688,55.9506,N/A,City of Edinburgh,Midlothian
"Edinburgh, 21 Warriston Crescent",http://commons.wikimedia.org/wiki/Special:FilePath/City%20of%20Edinburgh%20-%20Edinburgh%2C%2021%20Warriston%20Crescent%20-%2020230929174532.jpg,AlasdairW,2023-09-29 20:58:14,2023,29,terrace house,-3.19962,55.9645,N/A,City of Edinburgh,Midlothian
"Edinburgh, 22 Warriston Crescent",http://commons.wikimedia.org/wiki/Special:FilePath/City%20of%20Edinburgh%20-%20Edinburgh%2C%2022%20Warriston%20Crescent%20-%2020230929174543.jpg,AlasdairW,2023-09-29 20:54:04,2023,29,terrace house,-3.19961,55.9645,N/A,City of Edinburgh,Midlothian
"Dumbreck, 6 Rowan Road, Craigie Hall",http://commons.wikimedia.org/wiki/Special:FilePath/Craigie%20Hall%2C%20Dumbreck%2C%20Glasgow%20%28geograph%202179733%29.jpg,Plucas58,2017-09-01 10:30:58,2017,1,villa,-4.30882,55.8469,N/A,Glasgow City,Lanarkshire
"Linlithgow, High Street, St Michael's Well",http://commons.wikimedia.org/wiki/Special:FilePath/Linlithgow%2C%20High%20Street%2C%20St%20Michael%27s%20Well%20-%2020170923152611.jpg,Ammienoot,2017-09-27 22:43:23,2017,27,water well,-3.59742,55.9767,N/A,West Lothian,West Lothian
"Edinburgh, 16 - 17 George Square",http://commons.wikimedia.org/wiki/Special:FilePath/Edinburgh%2C%2016%20-%2017%20George%20Square.jpg,Stinglehammer,2017-09-28 22:06:18,2017,28,architectural structure,-3.19077,55.9439,N/A,City of Edinburgh,Midlothian
"Edinburgh, 48 Dick Place",http://commons.wikimedia.org/wiki/Special:FilePath/48%20Dick%20Place.jpg,Melissa Highton,2020-09-25 15:26:19,2020,25,villa,-3.19051,55.9328,N/A,City of Edinburgh,Midlothian
Dirleton Castle Tower,http://commons.wikimedia.org/wiki/Special:FilePath/East%20Lothian%20-%20Dirleton%20Castle%2C%20Tower%20-%2020181125144417.jpg,Yarnoverhook,2022-09-10 19:53:33,2022,10,tower house,-2.78084,56.0461,N/A,East Lothian,East Lothian
"Edinburgh, North Bridge, Scotsman Steps",http://commons.wikimedia.org/wiki/Special:FilePath/Scotsman%20Steps%2C%20Edinburgh%20-%20third%20flight%20down.jpg,ToyHorse,2017-09-14 18:31:52,2017,14,architectural structure,-3.18859,55.9512,N/A,City of Edinburgh,Midlothian
"North Queensferry, Pilot Boat Slipway",http://commons.wikimedia.org/wiki/Special:FilePath/Pilot%20Boat%20Slipway.jpg,Ammienoot,2017-09-24 17:50:53,2017,24,slipway,-3.39057,56.0066,N/A,Fife,Fife
"Amisfield Park, Walled Garden",http://commons.wikimedia.org/wiki/Special:FilePath/Amisfield%20Walled%20Garden%20-%20NE%20pavilion.jpg,ArchHist,2018-09-01 12:25:19,2018,1,walled garden,-2.74932,55.9585,N/A,East Lothian,East Lothian
"Edinburgh, 2 Gayfield Place",http://commons.wikimedia.org/wiki/Special:FilePath/Edinburgh%2C%202%20Gayfield%20Place.jpg,Wilmm,2017-09-24 16:33:29,2017,24,tenement,-3.18427,55.959,N/A,City of Edinburgh,Midlothian
"534 Sauchiehall Street, Albany Chambers",http://commons.wikimedia.org/wiki/Special:FilePath/534%20Sauchiehall%20Street%2C%20Albany%20Chambers.jpg,Stinglehammer,2017-09-17 11:38:19,2017,17,building,-4.27015,55.8664,N/A,Glasgow City,Lanarkshire
"Edinburgh, 14 Elm Row",http://commons.wikimedia.org/wiki/Special:FilePath/Edinburgh%2C%2014%20Elm%20Row.jpg,Wilmm,2017-09-24 16:22:47,2017,24,architectural structure,-3.18336,55.9586,N/A,City of Edinburgh,Midlothian
"Edinburgh, 18, 19 Elm Row",http://commons.wikimedia.org/wiki/Special:FilePath/Edinburgh%2C%2018%2C%2019%20Elm%20Row.jpg,Wilmm,2017-09-24 16:25:33,2017,24,architectural structure,-3.18314,55.9588,N/A,City of Edinburgh,Midlothian
Montagu Bridge,http://commons.wikimedia.org/wiki/Special:FilePath/View%20of%20Montagu%20Bridge%20from%20E.jpg,ArchHist,2018-09-09 17:04:14,2018,9,road bridge,-3.06728,55.90154,N/A,Midlothian,Midlothian
"Pollokshaws Road, Pollok Park, Pollok House, Stables",http://commons.wikimedia.org/wiki/Special:FilePath/Pollok%20House%20Stables%2001.jpg,Ammienoot,2017-09-30 18:26:46,2017,30,stable,-4.31638,55.8264,N/A,Glasgow City,Renfrewshire
"Gartloch Hospital, Asylum Block",http://commons.wikimedia.org/wiki/Special:FilePath/Gartloch%20Hospital%2C%20Asylum.jpg,Waldemar Luczak,2018-09-06 09:17:12,2018,6,architectural structure,-4.1041,55.8794,N/A,Glasgow City,Lanarkshire
"Edinburgh, 10 Warriston Crescent",http://commons.wikimedia.org/wiki/Special:FilePath/City%20of%20Edinburgh%20-%20Edinburgh%2C%2010%20Warriston%20Crescent%20-%2020230929174306.jpg,AlasdairW,2023-09-29 21:08:22,2023,29,terrace house,-3.19993,55.9638,N/A,City of Edinburgh,Midlothian
"Cromarty, Church Street, The Courthouse",http://commons.wikimedia.org/wiki/Special:FilePath/Court%20House%2C%20Cromarty%2001.jpg,Braveheart,2016-09-20 10:31:19,2016,20,architectural structure,-4.03116,57.68,N/A,Highland,Cromartyshire
"Edinburgh, 2, 3, 4 Warriston Crescent",http://commons.wikimedia.org/wiki/Special:FilePath/City%20of%20Edinburgh%20-%20Edinburgh%2C%202%2C%203%2C%204%20Warriston%20Crescent%20-%2020230929174149.jpg,AlasdairW,2023-09-29 20:22:08,2023,29,tenement,-3.20016,55.9633,N/A,City of Edinburgh,Midlothian
"27, 28 And 29 St Andrew Square And 1 North St Andrew Lane",http://commons.wikimedia.org/wiki/Special:FilePath/Edinburgh%20-%2027%2C%2028%20And%2029%20St%20Andrew%20Square%20And%201%20North%20St%20Andrew%20Lane%20-%2020140421234403.jpg,Enric,2018-09-24 23:22:44,2018,24,building,-3.19294,55.9552,N/A,City of Edinburgh,Midlothian
"Edinburgh, 11 Warriston Crescent",http://commons.wikimedia.org/wiki/Special:FilePath/City%20of%20Edinburgh%20-%20Edinburgh%2C%2011%20Warriston%20Crescent%20-%2020230929174334.jpg,AlasdairW,2023-09-29 20:50:58,2023,29,terrace house,-3.19992,55.9638,N/A,City of Edinburgh,Midlothian
"Cromarty, High Street, Townlands Farm, Barn",http://commons.wikimedia.org/wiki/Special:FilePath/Townlands%20Barn%2C%20Cromarty%2001.jpg,Braveheart,2016-09-20 21:11:38,2016,20,architectural structure,-4.03518,57.6806,N/A,Highland,Cromartyshire
"Edinburgh, Lauriston Place, Fire Brigade Station",http://commons.wikimedia.org/wiki/Special:FilePath/Fire%20Brigade%20Station%2C%20Lauriston%20Place%2C%20Edinburgh%2C%201.jpg,LornaMCampbell,2018-09-27 16:28:41,2018,27,architectural structure,-3.19966,55.9455,N/A,City of Edinburgh,Midlothian
"Newhailes House, Musselburgh",http://commons.wikimedia.org/wiki/Special:FilePath/Newhailes%20House.jpg,Gweduni,2017-09-30 13:09:01,2017,30,architectural structure; country house,-3.07916667,55.94083333,N/A,East Lothian,Midlothian
"Edinburgh, Dean Village, Damside, 19-54 Well Court",http://commons.wikimedia.org/wiki/Special:FilePath/DSCN6823%20Damside%2019-54%20Well%20Court%2C%20Dean%20Village.jpg,AlasdairW,2020-09-29 21:27:05,2020,29,architectural structure,-3.21799,55.9521,N/A,City of Edinburgh,Midlothian
"681 Alexandra Parade, St Andrew's East Church",http://commons.wikimedia.org/wiki/Special:FilePath/St%20Andrews%20East%20Church.jpg,CraigIW,2013-09-09 15:20:28,2013,9,church building,-4.2086,55.8631,N/A,Glasgow City,Lanarkshire
"Glasgow Green, Doulton Fountain",http://commons.wikimedia.org/wiki/Special:FilePath/Doulton%20Fountain%2C%20Glasgow%20Green.jpg,Delphine Dallison,2018-09-03 16:50:49,2018,3,fountain,-4.23623,55.8517,N/A,Glasgow City,Lanarkshire
"Cromarty, Causeway, Church Of Scotland Manse",http://commons.wikimedia.org/wiki/Special:FilePath/The%20Gardener%27s%20House%2C%20Cromarty%2001.jpg,Braveheart,2016-09-20 18:40:25,2016,20,manse,-4.02571,57.6785,N/A,Highland,Cromartyshire
"Bridgeton Cross, Shelter",http://commons.wikimedia.org/wiki/Special:FilePath/Bridgeton%20Umbrella%20from%20top%20floor%20of%20Bridgeton%20Olympia%20Building%20DSCN1823.jpg,AlasdairW,2018-09-17 20:57:47,2018,17,shelter,-4.22643,55.849,N/A,Glasgow City,Lanarkshire
"Crow Road, Anniesland Court (linking Terrace With Mall Below)",http://commons.wikimedia.org/wiki/Special:FilePath/Anniesland%20Court%20from%20Crow%20Road.JPG,AlasdairW,2015-09-23 22:59:06,2015,23,high-rise building,-4.3252,55.8909,N/A,Glasgow City,Renfrewshire
"Edinburgh, 6 Warriston Crescent",http://commons.wikimedia.org/wiki/Special:FilePath/City%20of%20Edinburgh%20-%20Edinburgh%2C%206%20Warriston%20Crescent%20-%2020230929174216.jpg,AlasdairW,2023-09-29 20:29:28,2023,29,terrace house,-3.20005,55.9635,N/A,City of Edinburgh,Midlothian
"Edinburgh, 20 Warriston Crescent",http://commons.wikimedia.org/wiki/Special:FilePath/City%20of%20Edinburgh%20-%20Edinburgh%2C%2020%20Warriston%20Crescent%20-%2020230929174526.jpg,AlasdairW,2023-09-29 21:54:08,2023,29,terrace house,-3.19965,55.9644,N/A,City of Edinburgh,Midlothian
"Edinburgh, 69 George Street",http://commons.wikimedia.org/wiki/Special:FilePath/Edinburgh%20-%20Edinburgh%2C%2069%20George%20Street%20-%2020140421200112.jpg,Enric,2018-09-18 23:34:34,2018,18,bank building,-3.20023,55.9533,N/A,City of Edinburgh,Midlothian
"Edinburgh, 26 George Street, Commercial Union Insurance",http://commons.wikimedia.org/wiki/Special:FilePath/Edinburgh%20-%20Edinburgh%2C%2026%20George%20Street%2C%20Commercial%20Union%20Insurance%20-%2020140421200529.jpg,Enric,2018-09-18 23:39:19,2018,18,office building,-3.19682,55.9533,N/A,City of Edinburgh,Midlothian
