Item Label,Image,Author,Submission DateTime,Year,Date,Instance Of Type Label,Longitude,Latitude,Inception,Admin Entity Label,Historic County Label
"Church of St Margaret, Knotting, Bedfordshire",http://commons.wikimedia.org/wiki/Special:FilePath/St%20Margaret%20of%20Antioch%2C%20Knotting.JPG,Arcusiridis,2013-09-29 16:55:04,2013,29,church building,-0.5324,52.2603,1150-01-01T00:00:00Z,Knotting and Souldrop,Bedfordshire
Stationers' Hall,http://commons.wikimedia.org/wiki/Special:FilePath/EH1064742%20Stationers%20Hall%20Stationers%27%20Hall%2001.jpg,KTC,2013-09-23 22:53:40,2013,23,building,-0.10154,51.5144,N/A,City of London,Middlesex
"Forecourt Buildings, Walls And Piers, Attached To South East Of Antony House",http://commons.wikimedia.org/wiki/Special:FilePath/Antony%20House%20Geograph-3373451-by-Derek-Harper.jpg,Dave.Dunford,2015-09-30 16:30:52,2015,30,architectural structure,-4.22689,50.3851,N/A,Antony,Cornwall
"St Andrew's Church, Dent",http://commons.wikimedia.org/wiki/Special:FilePath/St%20Andrew%27s%20Church%2C%20Dent.jpg,Peter I. Vardy,2009-09-30 13:54:32,2009,30,church building,-2.4542,54.2781,1150-01-01T00:00:00Z,Dent,Yorkshire
The Iron Bridge,http://commons.wikimedia.org/wiki/Special:FilePath/Ironbridge%202014.jpg,Colin,2014-09-29 20:32:31,2014,29,road bridge; deck arch bridge,-2.48542,52.6273,1779-01-01T00:00:00Z,The Gorge,Shropshire
Royal Naval College North West Building King Charles Quarters,http://commons.wikimedia.org/wiki/Special:FilePath/EH1211337%20Naval%20College%20King%20Charles%20Quarters%2009.jpg,KTC,2013-09-03 07:07:56,2013,3,architectural structure,-0.00694984,51.4833,N/A,Royal Borough of Greenwich,Kent
Hospital Of The Holy Trinity (whitgift Hospital),http://commons.wikimedia.org/wiki/Special:FilePath/Whitgift%20Almshouses.JPG,Eagleash,2013-09-21 19:23:41,2013,21,architectural structure,-0.100254,51.3739,N/A,London Borough of Croydon,Surrey
Moulton Hall,http://commons.wikimedia.org/wiki/Special:FilePath/Moulton%20Hall%20North%20Yorkshire.jpg,Storye book,2013-09-07 16:55:02,2013,7,house museum,-1.63961,54.4267,N/A,Moulton,Yorkshire
St Senwyr's Church,http://commons.wikimedia.org/wiki/Special:FilePath/Church%20of%20St%20Senwyr%2C%20Llansannor.JPG,FruitMonkey,2013-09-07 18:13:14,2013,7,church building,-3.45077,51.4875,1201-01-01T00:00:00Z,Penllyn,Glamorgan
Boughton Monchelsea Place,http://commons.wikimedia.org/wiki/Special:FilePath/Boughton%20Monchelsea%20Place%2C%20Main%20Frontage.jpg,Geograph Update Bot,2017-09-16 12:48:50,2017,16,English country house,0.535604,51.2215,1819-01-01T00:00:00Z,Boughton Monchelsea,Kent
The Norman Hall,http://commons.wikimedia.org/wiki/Special:FilePath/Norman%20Hall%20Sutton%20Courtenay%20Geograph-2662703-by-Des-Blenkinsopp.jpg,Geograph Update Bot,2017-09-14 21:39:57,2017,14,architectural structure,-1.27263,51.6449,N/A,Sutton Courtenay,Berkshire
Pierhead Building,http://commons.wikimedia.org/wiki/Special:FilePath/Adeilad%20y%20Pierhead%2C%20Caerdydd.jpg,Ham II,2014-09-02 16:26:29,2014,2,building,-3.16341,51.4635,1897-01-01T00:00:00Z,Cardiff; Butetown,Glamorgan
Union Bridge,http://commons.wikimedia.org/wiki/Special:FilePath/Union%20Chain%20Bridge%20between%20England%20and%20Scotland%2C%202019.jpg,DeFacto,2020-09-01 20:53:12,2020,1,suspension bridge; road bridge,-2.107210826,55.752491622,1820-01-01T00:00:00Z,Scottish Borders; Horncliffe; Hutton,Berwickshire
"St. Andrew's Church, Folkingham",http://commons.wikimedia.org/wiki/Special:FilePath/Folkingham%20church%20lincs.jpg,Lofty,2010-09-21 15:50:13,2010,21,church building,-0.4093,52.8904,1101-01-01T00:00:00Z,Folkingham,Lincolnshire
Part of City Wall between Morgans Mount and Northgate,http://commons.wikimedia.org/wiki/Special:FilePath/Chester%20city%20wall%20%28view%20from%20canal%2C%20near%20Water%20Tower%20Street%29.jpg,Paul the Archivist,2018-09-01 09:52:35,2018,1,city walls,-2.89465,53.1936,N/A,Cheshire West and Chester,Cheshire
Church of St Lawrence,http://commons.wikimedia.org/wiki/Special:FilePath/The%20Parish%20Church%20of%20St%20Lawrence%2C%20Oxhill%20%28geograph%202072343%29.jpg,File Upload Bot (Magnus Manske),2014-09-13 00:02:31,2014,13,church building,-1.53869,52.1071,N/A,Oxhill,Warwickshire
Boundary Walls To Numbers 1-13,http://commons.wikimedia.org/wiki/Special:FilePath/1%20to%2013%20Vicars%20Close%2C%20Wells%20including%20boundary%20walls.JPG,Rodw,2013-09-11 13:58:08,2013,11,wall,-2.64365,51.2115,N/A,Wells,Somerset
Leverington Hall,http://commons.wikimedia.org/wiki/Special:FilePath/Leverington%20Hall%2C%20Church%20Road%2C%20Leverington%20%28geograph%203506030%29.jpg,Kaliforniyka,2015-09-09 05:28:40,2015,9,house,0.136953,52.6798,N/A,Leverington,Cambridgeshire
Church of St Peter and St Paul,http://commons.wikimedia.org/wiki/Special:FilePath/St%20Peter%20and%20St%20Paul%2C%20Appledore%2C%20the%20tower.JPG,Poliphilo,2013-09-08 15:05:19,2013,8,church building,0.79042,51.0296,1250-01-01T00:00:00Z,Appledore,Kent
Thurnham Hall,http://commons.wikimedia.org/wiki/Special:FilePath/Thurnham%20Hall%20-%20geograph.org.uk%20-%201675790.jpg,File Upload Bot (Magnus Manske),2010-09-26 18:13:25,2010,26,English country house,-2.8196,53.9842,N/A,Thurnham,Lancashire
Christ Church Library,http://commons.wikimedia.org/wiki/Special:FilePath/Chchlib.jpg,File Upload Bot (Magnus Manske),2011-09-11 16:44:02,2011,11,library building; university library,-1.2549,51.751,N/A,Oxford,Oxfordshire
"Blaise Hamlet, Oak Cottage",http://commons.wikimedia.org/wiki/Special:FilePath/Oak%20Cottage%2C%20Blaise%20Hamlet.jpg,Angusmclellan,2008-09-07 16:14:56,2008,7,cottage,-2.63512,51.5071,N/A,City of Bristol,Gloucestershire
Alnwick Castle,http://commons.wikimedia.org/wiki/Special:FilePath/Castle%20at%20Alnwick%20panorama%20%2827201950193%29.jpg,Vítor,2016-09-24 01:45:34,2016,24,castle; house museum,-1.706078,55.415783,1096-01-01T00:00:00Z,England,Northumberland
Alderman Fenwick's House,http://commons.wikimedia.org/wiki/Special:FilePath/Alderman%20Fenwick%27s%20House%2C%20Newcastle-upon-Tyne.jpg,Barabbas1312,2013-09-21 18:22:23,2013,21,house,-1.61032,54.9718,N/A,Newcastle upon Tyne,Northumberland
The Anglican Chapel,http://commons.wikimedia.org/wiki/Special:FilePath/Kensal%20Green%20Cemetery%20-15Aug2006.jpg,File Upload Bot (Magnus Manske),2008-09-11 09:21:24,2008,11,chapel,-0.225813,51.5283,N/A,Royal Borough of Kensington and Chelsea,Middlesex
Church of Holy Trinity,http://commons.wikimedia.org/wiki/Special:FilePath/Great%20Paxton%20church%20from%20the%20South%20West%20-%20geograph.org.uk%20-%201417106.jpg,File Upload Bot (Magnus Manske),2009-09-28 20:41:25,2009,28,church building,-0.228496,52.2624,1050-01-01T00:00:00Z,Great Paxton,Huntingdonshire
Old Judges House,http://commons.wikimedia.org/wiki/Special:FilePath/Geograph%202486682%20The%20Old%20Judge%27s%20House.jpg,Geograph Update Bot,2017-09-12 22:55:15,2017,12,house,-2.24667,51.866,N/A,Gloucester,Gloucestershire
Audley End House,http://commons.wikimedia.org/wiki/Special:FilePath/Audley%20End%20House.JPG,Ihavesize16feet,2013-09-24 17:02:27,2013,24,English country house; house museum,0.220555555,52.020833333,N/A,Saffron Walden,Essex
Howsham Hall,http://commons.wikimedia.org/wiki/Special:FilePath/Howsham%20Hall.jpg,Aynhoe Park,2015-09-10 15:53:43,2015,10,English country house,-0.88006,54.0592,1610-01-01T00:00:00Z,Howsham,Yorkshire
"All Saints' Church, Renhold",http://commons.wikimedia.org/wiki/Special:FilePath/Renhold%20Church%20of%20All%20Saints-1-2.jpg,Flutophilus,2013-09-25 17:46:18,2013,25,church building,-0.4095,52.1632,1350-01-01T00:00:00Z,Renhold,Bedfordshire
Ewloe Castle,http://commons.wikimedia.org/wiki/Special:FilePath/Ewloe%20Castle.JPG,Hogweard,2015-09-27 09:02:04,2015,27,castle,-3.0672227,53.199961,1257-01-01T00:00:00Z,Hawarden,Flintshire
"Gates, Gatepiers And Railings To Natural History Museum",http://commons.wikimedia.org/wiki/Special:FilePath/National%20History%20Museum%20London.jpg,Alinangel,2018-09-28 08:12:57,2018,28,gate,-0.176321,51.4956,N/A,Royal Borough of Kensington and Chelsea,Middlesex
"Church of St Andrew, Stogursey",http://commons.wikimedia.org/wiki/Special:FilePath/St%20Andrew%27s%20Church%2C%20Stogursey%2C%20West%20Somerset%20%282879323574%29.jpg,Tm,2015-09-28 18:00:37,2015,28,church building,-3.1391,51.1796,1101-01-01T00:00:00Z,Stogursey,Somerset
"Ruined Cathedral Church of St Michael, Coventry",http://commons.wikimedia.org/wiki/Special:FilePath/Coventry%20Cathedral%20Ruins%20with%20Rainbow%20edit.jpg,Christoph Braun,2012-09-12 18:20:04,2012,12,cathedral; ruins; parish church,-1.507443,52.407925,1300-01-01T00:00:00Z,Coventry,Warwickshire
Sailors' Chapel,http://commons.wikimedia.org/wiki/Special:FilePath/Seamans%20Chapel%2C%20Angle%20%28geograph%204850851%29.jpg,Ham II,2018-09-03 18:30:13,2018,3,chapel,-5.08793,51.6845,1447-01-01T00:00:00Z,Angle,Pembrokeshire
Park Wall,http://commons.wikimedia.org/wiki/Special:FilePath/Park%20Wall%2020130408%20291.JPG,Elisa.rolle,2013-09-06 22:48:56,2013,6,wall; retaining wall,-2.19717,51.0052,N/A,Shaftesbury,Dorset
"42-52, Great Pulteney Street",http://commons.wikimedia.org/wiki/Special:FilePath/42-52%20Great%20Pulteney%20Street.JPG,Plumbum64,2013-09-06 19:42:07,2013,6,building,-2.35229,51.385,N/A,Bath and North East Somerset,Somerset
"Church of St Andrew, Stogursey",http://commons.wikimedia.org/wiki/Special:FilePath/St%20Andrew%27s%20Church%2C%20Stogursey%2C%20West%20Somerset%20%282879323574%29.jpg,Tm,2015-09-28 18:00:37,2015,28,church building,-3.1389,51.1795,1101-01-01T00:00:00Z,Stogursey,Somerset
"St. Aldhelm's Chapel, St. Aldhelm's Head",http://commons.wikimedia.org/wiki/Special:FilePath/St.%20Aldhelm%27s%20Head%20Chapel.jpg,Wulfrunian1,2013-09-17 06:24:57,2013,17,church building,-2.0568,50.5797,1150-01-01T00:00:00Z,Worth Matravers,Dorset
"Screen Walls, Gates, Railings And Lamps To The Law Courts",http://commons.wikimedia.org/wiki/Special:FilePath/Law%20Courts%2020130414%20092.JPG,Elisa.rolle,2013-09-07 21:02:54,2013,7,wall,-0.114111,51.5134,N/A,City of Westminster,Middlesex
"Oriel College, West Range, Back Quadrangle",http://commons.wikimedia.org/wiki/Special:FilePath/Oriel%20Carter.jpg,Camboxer,2017-09-10 18:55:57,2017,10,university building,-1.25388,51.75171,N/A,Oxford,Oxfordshire
Windsor Guildhall,http://commons.wikimedia.org/wiki/Special:FilePath/Guildhall%2C%20Windsor%2C%20Inglaterra%2C%202014-08-12%2C%20DD%2015.JPG,Poco a poco,2014-09-12 22:43:39,2014,12,town hall,-0.607,51.4822,1686-01-01T00:00:00Z,Windsor and Maidenhead,Berkshire
The Parish Church of All Saints,http://commons.wikimedia.org/wiki/Special:FilePath/All%20Saints%20Church%2C%20Iden%20%28Geograph%20Image%201926192%208ab9a00c%29.jpg,Geograph Update Bot,2017-09-10 10:49:20,2017,10,church building,0.727463,50.9813,1350-01-01T00:00:00Z,Iden,Sussex
Deanery Gate and Gatehouse,http://commons.wikimedia.org/wiki/Special:FilePath/Deanery%20Gate%20%26%20Gatehouse.JPG,Dhowes9,2013-09-20 19:33:28,2013,20,gatehouse,0.503599,51.3892,N/A,Medway,Kent
Thaxted Guildhall,http://commons.wikimedia.org/wiki/Special:FilePath/Thaxted%20Guildhall.JPG,Ihavesize16feet,2013-09-24 17:02:33,2013,24,town hall,0.343496,51.9537,N/A,Thaxted,Essex
"Trinity College, North Range",http://commons.wikimedia.org/wiki/Special:FilePath/Trinity%20College%2C%20North%20Range%202013-09-20%2009-44-53.jpg,Jarry1250,2013-09-20 08:45:49,2013,20,architectural structure,-1.25748,51.7557,N/A,Oxford,Oxfordshire
Church of St Martin,http://commons.wikimedia.org/wiki/Special:FilePath/Tuddenham%20St%20Martin%20-%20Church%20of%20St%20Martin.jpg,Geograph Update Bot,2017-09-03 22:06:18,2017,3,church building,1.19794,52.0907,1150-01-01T00:00:00Z,Tuddenham St Martin,Suffolk
"St Sepulchre-without-Newgate, Holborn",http://commons.wikimedia.org/wiki/Special:FilePath/1064640-Church%20of%20St%20Sepulchre.JPG,GVR,2013-09-12 21:01:04,2013,12,church building,-0.102352777,51.516686111,1450-01-01T00:00:00Z,City of London,Middlesex
"Llanthony Priory, Range Between Outer And Inner Courts",http://commons.wikimedia.org/wiki/Special:FilePath/Llanthony%20Secunda%20Priory%20in%20January%202019.jpg,Tom Axford 1,2019-09-27 13:54:20,2019,27,architectural structure,-2.25713,51.8603,N/A,Gloucester,Gloucestershire
St Michael's Church,http://commons.wikimedia.org/wiki/Special:FilePath/Church%20of%20St%20Michael%20%26%20All%20Angels%2C%20Michaelston-le-Pit.jpg,Geograph Update Bot,2017-09-09 22:43:02,2017,9,church building,-3.22199,51.4494,1200-01-01T00:00:00Z,Michaelston-le-Pit and Leckwith,Glamorgan
Gatepiers At Entrance To Drive Of Kirkleatham Hall School,http://commons.wikimedia.org/wiki/Special:FilePath/60324%20Kirkleatham%20Gate%20Piers%202.JPG,Simon Armstrong,2013-09-21 15:46:48,2013,21,gatepost,-1.08156,54.5883,N/A,Redcar and Cleveland,Yorkshire
Raglan Castle,http://commons.wikimedia.org/wiki/Special:FilePath/Raglan%20Castle%2C%20Monmouthshire%2001.JPG,Tyssil,2013-09-30 19:41:20,2013,30,castle,-2.8500632,51.770297,N/A,Monmouthshire,Monmouthshire
Vintners' Hall,http://commons.wikimedia.org/wiki/Special:FilePath/69%20Upper%20Thames%20Street%20%282%29.jpg,Graeme.duckworth,2017-09-23 13:07:32,2017,23,building,-0.0935924,51.5107,N/A,City of London,Middlesex
Church of Saint Just,http://commons.wikimedia.org/wiki/Special:FilePath/St%20Just%20Church.jpg,Cbichescu,2013-09-08 20:20:25,2013,8,church building,-5.01505,50.1821,1250-01-01T00:00:00Z,St Just in Roseland,Cornwall
"Church of St Lawrence, Priddy",http://commons.wikimedia.org/wiki/Special:FilePath/Priddy%20church.jpg,Stevekeiretsu,2017-09-04 21:18:24,2017,4,church building,-2.6774,51.25966,1201-01-01T00:00:00Z,Priddy,Somerset
The Royal Overseas League,http://commons.wikimedia.org/wiki/Special:FilePath/The%20Royal%20Overseas%20League%2020130408%20106.JPG,Elisa.rolle,2013-09-06 20:29:21,2013,6,building,-0.14045,51.50636,1735-01-01T00:00:00Z,City of Westminster,Middlesex
St Mary's Gate,http://commons.wikimedia.org/wiki/Special:FilePath/Geograph%202708152%20St%20Mary%27s%20Gate%2C%20Gloucester.jpg,Geograph Update Bot,2017-09-15 19:46:28,2017,15,building; gate,-2.24819,51.8681,N/A,Gloucester,Gloucestershire
Hampton Court Palace,http://commons.wikimedia.org/wiki/Special:FilePath/Hampton%20Court%20Palace%20%283%29.jpg,Ricardalovesmonuments,2022-09-14 17:49:53,2022,14,palace; theatre; house museum; independent museum,-0.337499,51.4034,1515-01-01T00:00:00Z,London Borough of Richmond upon Thames,Middlesex
"St Mary's Church, Mundon",http://commons.wikimedia.org/wiki/Special:FilePath/St%20Mary%27s%20Church%2C%20Mundon%2C%20from%20east.jpg,Rwendland,2010-09-18 21:35:30,2010,18,church building,0.7182,51.6912,1301-01-01T00:00:00Z,Mundon,Essex
Poor Travellers House Richard Watts Charity,http://commons.wikimedia.org/wiki/Special:FilePath/Poor%20Travellers%20House.JPG,Dhowes9,2013-09-20 19:33:32,2013,20,building,0.504784,51.3887,N/A,Medway,Kent
Bridge Over The River Wey To The North West Corner Of Tilford Green,http://commons.wikimedia.org/wiki/Special:FilePath/Tilford%20West%20Bridge.jpg,BabelStone,2013-09-08 18:06:51,2013,8,road bridge,-0.754139,51.1843,N/A,Tilford,Surrey
Coronation Stone,http://commons.wikimedia.org/wiki/Special:FilePath/CornationStone%20KingstonUponThames.jpg,Jmonica,2020-09-04 10:29:29,2020,4,architectural structure,-0.306111,51.4081,N/A,Royal Borough of Kingston upon Thames,Surrey
"New College, Bell Tower",http://commons.wikimedia.org/wiki/Special:FilePath/Sheldonian%20Theatre%20gate.jpg,Decan,2013-09-27 10:29:54,2013,27,bell tower,-1.25242,51.7546,N/A,Oxford,Oxfordshire
Sudbury Hall,http://commons.wikimedia.org/wiki/Special:FilePath/Sudbury%20Hall%20and%20Childhood%20Museum.jpg,Izabela Felter,2017-09-07 06:49:35,2017,7,English country house; house museum,-1.765233,52.886338,N/A,Sudbury,Derbyshire
Minor Canons' Row,http://commons.wikimedia.org/wiki/Special:FilePath/Minor%20Canons%20Row.JPG,Dhowes9,2013-09-20 19:33:27,2013,20,terrace of houses,0.502725,51.3883,N/A,Medway,Kent
"Mortuary Chapel, Handsworth Cemetery",http://commons.wikimedia.org/wiki/Special:FilePath/Handsworth%20Cemetery%20Chapel.jpg,Flickr upload bot,2010-09-05 03:07:29,2010,5,sepulchral chapel,-1.9579,52.5145,1909-01-01T00:00:00Z,Handsworth; Birmingham,Staffordshire
The Church Stairs,http://commons.wikimedia.org/wiki/Special:FilePath/The%20Church%20Stairs%202013-09-04%2010-39-33.jpg,Aude,2013-09-04 09:40:43,2013,4,stairs,-0.611246,54.4888,N/A,Whitby,Yorkshire
Church of St Swithin,http://commons.wikimedia.org/wiki/Special:FilePath/Merton%20StSwithun%20South.JPG,Motacilla,2013-09-08 12:48:33,2013,8,church building,-1.16309,51.856,1250-01-01T00:00:00Z,Merton,Oxfordshire
Warehouses And General Offices At Western End Of North Quay,http://commons.wikimedia.org/wiki/Special:FilePath/EH1242440%20Warehouses%20and%20General%20Offices%20at%20Western%20End%20of%20North%20Quay%2009.jpg,KTC,2013-09-02 22:02:59,2013,2,warehouse,-0.0240392,51.5077,N/A,London Borough of Tower Hamlets,Middlesex
Church of St Helen,http://commons.wikimedia.org/wiki/Special:FilePath/Etwall%2C%20St%20Helen.jpg,Flickr upload bot,2010-09-07 23:12:43,2010,7,church building,-1.60187,52.8847,1150-01-01T00:00:00Z,Etwall,Derbyshire
Remains Of The Great Hall Of Brecon Castle,http://commons.wikimedia.org/wiki/Special:FilePath/Great%20Hall%2C%20Brecon%20Castle.JPG,Tyssil,2013-09-30 20:27:29,2013,30,great hall,-3.39377,51.9487,N/A,Brecon,Brecknockshire
Eastgate,http://commons.wikimedia.org/wiki/Special:FilePath/Totnes%20-%20Eastgate%2020181026-03.jpg,Pymouss,2019-09-20 23:22:40,2019,20,city gate,-3.68704,50.4314,N/A,Totnes,Devon
Nos. 28-31 (consec) And Attached Railings And Gates,http://commons.wikimedia.org/wiki/Special:FilePath/21-40%20Great%20Pulteney%20Street%2C%20Bath%20-%20geograph.org.uk%20-%203826203.jpg,GeographBot,2022-09-21 05:54:47,2022,21,architectural structure,-2.35311,51.3851,N/A,Bath and North East Somerset,Somerset
"Church of St Thomas the Martyr, Up Holland",http://commons.wikimedia.org/wiki/Special:FilePath/The%20Church%20of%20St%20Thomas%20the%20Martyr%2C%20Upholland%20-%20geograph.org.uk%20-%202056849.jpg,File Upload Bot (Magnus Manske),2010-09-12 19:57:16,2010,12,church building,-2.7211,53.5405,1317-01-01T00:00:00Z,Up Holland,Lancashire
Hadlow Tower,http://commons.wikimedia.org/wiki/Special:FilePath/Hadlow%20Tower%2C%20Hadlow%2C%20Tonbridge%20%26%20Malling%2C%20Kent%2C%20UK.jpg,Christopher nicol,2013-09-19 15:59:58,2013,19,tower,0.338888888,51.223611111,N/A,Tonbridge and Malling,Kent
Parish Church of St Mary,http://commons.wikimedia.org/wiki/Special:FilePath/Church%20of%20St%20Mary%2C%20Haddenham%2C%20Buckinghamshire-geograph-4587515-by-Oswald-Bertram.jpg,Judithcomm,2015-09-23 20:38:54,2015,23,church building,-0.926697,51.7658,1150-01-01T00:00:00Z,Haddenham,Buckinghamshire
Wren's Cathedral,http://commons.wikimedia.org/wiki/Special:FilePath/Church%20of%20St%20Leonard%2C%20Wroxall.JPG,Necrothesp,2013-09-11 18:22:45,2013,11,church building,-1.6758,52.3342,1315-01-01T00:00:00Z,"Beausale, Haseley, Honiley and Wroxall",Warwickshire
S Gatehouse At Ewenny Priory (house),http://commons.wikimedia.org/wiki/Special:FilePath/South%20Gatehouse%2C%20Ewenny%20Priory.JPG,FruitMonkey,2013-09-29 18:20:54,2013,29,gatehouse,-3.56877,51.4879,N/A,Ewenny,Glamorgan
Bronllys Castle,http://commons.wikimedia.org/wiki/Special:FilePath/Bronllys%20Castle%20-%20geograph.org.uk%20-%201921221.jpg,Geograph Update Bot,2017-09-10 10:30:39,2017,10,castle; archaeological site,-3.24056,52.0036,N/A,Bronllys,Brecknockshire
Part of City Walls from Bridgegate to drum tower 50 metres east,http://commons.wikimedia.org/wiki/Special:FilePath/PART%20OF%20CITY%20WALLS%20FROM%20BRIDGEGATE%20TO%20DRUM%20TOWER%2050%20METRES%20EAST.jpg,Emdee314,2013-09-11 20:35:45,2013,11,city walls,-2.88884,53.1864,N/A,Cheshire West and Chester,Cheshire
Caernarfon town walls,http://commons.wikimedia.org/wiki/Special:FilePath/Town%20walls%2C%20Caernarfon%20-%20geograph.org.uk%20-%20823515.jpg,Hchc2009,2012-09-26 21:13:05,2012,26,city walls,-4.2761901,53.140958,N/A,Caernarfon,Caernarfonshire
Cellarers House (boarding House Of King's School),http://commons.wikimedia.org/wiki/Special:FilePath/Ely%2C%20Cellarers%20House%20%28boarding%20House%20Of%20King%27s%20School%29.jpg,Magnus Manske,2018-09-16 11:53:17,2018,16,house,0.264025,52.3979,N/A,Ely,Cambridgeshire
British Museum,http://commons.wikimedia.org/wiki/Special:FilePath/British%20Museum%20from%20NE%202%20%28cropped%29.JPG,Cristiano Tomás,2018-09-13 00:07:42,2018,13,museum; art museum; non-departmental public body; national museum,-0.126944444,51.519444444,1753-01-01T00:00:00Z,London Borough of Camden,Middlesex
Church of All Saints,http://commons.wikimedia.org/wiki/Special:FilePath/All%20Saints%20church%20in%20Thorpe%20Abbotts%20-%20geograph.org.uk%20-%201767792.jpg,File Upload Bot (Magnus Manske),2010-09-26 21:38:37,2010,26,church building,1.21167,52.3645,1250-01-01T00:00:00Z,Brockdish,Norfolk
Lilford Hall,http://commons.wikimedia.org/wiki/Special:FilePath/Frontfacade.JPG,Micklewright,2009-09-22 06:58:36,2009,22,stately home,-0.4868,52.4451,N/A,Lilford-cum-Wigsthorpe,Northamptonshire
"St Martin's Church, Bowness-on-Windermere",http://commons.wikimedia.org/wiki/Special:FilePath/St%20Martin%27s%20Church.%20Bowness.jpg,Peter I. Vardy,2009-09-01 21:00:55,2009,1,church building,-2.921,54.3641,1480-01-01T00:00:00Z,Windermere and Bowness,Westmorland
"Abbey Lawn Cottages, 34-39 Church Street",http://commons.wikimedia.org/wiki/Special:FilePath/Abbey%20Lawn%20Cottages%20EH%201201208.jpg,Rodw,2014-09-01 13:55:25,2014,1,cottage; terrace of houses,-2.16015,51.9912,N/A,Tewkesbury,Gloucestershire
Church of St Michael,http://commons.wikimedia.org/wiki/Special:FilePath/Breaston%20Derbyshire%20Saint%20Michael.JPG,Rpriv2000,2010-09-04 18:56:13,2010,4,church building,-1.31754,52.897,1050-01-01T00:00:00Z,Breaston,Derbyshire
Baconsthorpe Castle,http://commons.wikimedia.org/wiki/Special:FilePath/Baconsthorpe%20Castle%20from%20within%20the%20ruins.jpg,Aaronboardley,2013-09-05 11:50:31,2013,5,archaeological site; fortified manor house,1.15266,52.8987,1470-01-01T00:00:00Z,Baconsthorpe,Norfolk
"41a, Great Pulteney Street",http://commons.wikimedia.org/wiki/Special:FilePath/41A%20Great%20Pulteney%20Street%2C%20Bath.JPG,Plumbum64,2013-09-06 19:21:33,2013,6,building,-2.35167,51.3852,N/A,Bath and North East Somerset,Somerset
Church of St Andrew,http://commons.wikimedia.org/wiki/Special:FilePath/Coston%20parish%20church.jpg,Plucas58,2010-09-27 10:58:13,2010,27,church building,-0.743892,52.7906,1050-01-01T00:00:00Z,Garthorpe,Leicestershire
Vintners' Hall,http://commons.wikimedia.org/wiki/Special:FilePath/69%20Upper%20Thames%20Street%20%282%29.jpg,Graeme.duckworth,2017-09-23 13:07:32,2017,23,building,-0.0936383,51.5107,N/A,City of London,Middlesex
Church of All Saints,http://commons.wikimedia.org/wiki/Special:FilePath/Church%20of%20All%20Saints%2C%20Swallowfield.JPG,Lewis Hulbert,2013-09-12 21:07:26,2013,12,church building,-0.950033,51.3774,N/A,Swallowfield,Berkshire
Porter's Lodge,http://commons.wikimedia.org/wiki/Special:FilePath/City%20of%20Winchester%20-%20Porter%27s%20Lodge%20-%2020220831132529.jpg,BabelStone,2022-09-28 20:11:46,2022,28,gatehouse,-1.31408,51.0591,N/A,City of Winchester,Hampshire
"St Michael's Church, Basingstoke",http://commons.wikimedia.org/wiki/Special:FilePath/St%20Michael%27s%20Church%2C%20Basingstoke.JPG,Lewis Hulbert,2014-09-04 16:21:37,2014,4,church building,-1.0889,51.2653,1350-01-01T00:00:00Z,Basingstoke and Deane; Basingstoke,Hampshire
Great Barn,http://commons.wikimedia.org/wiki/Special:FilePath/Avebury%20Great%20Barn.jpg,Embedded Data Bot,2017-09-03 04:48:19,2017,3,thatched barn,-1.85706,51.4292,N/A,Avebury,Wiltshire
"St George's Church, Portland",http://commons.wikimedia.org/wiki/Special:FilePath/Uk%20dor%20weston.JPG,Steinsky,2006-09-08 00:05:59,2006,8,church building,-2.4438,50.547,1754-01-01T00:00:00Z,Portland,Dorset
Crowcombe Court,http://commons.wikimedia.org/wiki/Special:FilePath/Crowcombe%20Court.jpg,Rodw,2011-09-23 16:11:47,2011,23,English country house,-3.23034,51.12505,1739-01-01T00:00:00Z,Crowcombe,Somerset
Bourne Mill,http://commons.wikimedia.org/wiki/Special:FilePath/Bourne%20Mill.jpg,Mstanyauk,2014-09-16 17:02:54,2014,16,mill,0.91066,51.8769,N/A,Colchester,Essex
Gwrych Castle,http://commons.wikimedia.org/wiki/Special:FilePath/Castell%20Gwrych%2C%20Abergele%2C%20Cyngor%20Bwrdeisdref%20Conwy%20-%20Aerial%20photographs%20of%20Gwrych%20Castle%2C%20Abergele%2C%20Wales%2040.jpg,Llywelyn2000,2023-09-06 06:39:16,2023,6,country house; castle; folly; charitable organization,-3.609589,53.28353961,1819-01-01T00:00:00Z,Llanddulas and Rhyd-y-Foel,Denbighshire
St Celynin's Church,http://commons.wikimedia.org/wiki/Special:FilePath/13%20century%20Llangelynnin%20Church%2C%20Gwynedd%2C%20Wales%20-%20Eglwys%20Llangelynnin%2006.jpg,Llywelyn2000,2019-09-05 00:38:24,2019,5,church building,-4.11314,52.6437,1254-01-01T00:00:00Z,Llangelynnin,Merionethshire
Church of St Wilfred,http://commons.wikimedia.org/wiki/Special:FilePath/Brayton%20Church%20from%20the%20south-east%20-%20geograph.org.uk%20-%20644716.jpg,File Upload Bot (Magnus Manske),2010-09-13 21:53:12,2010,13,church building,-1.08477,53.7718,1150-01-01T00:00:00Z,Brayton,Yorkshire
The Mercantile Marine Memorial,http://commons.wikimedia.org/wiki/Special:FilePath/EH1031597%20Merchant%20Seamens%20Memorial%2002.JPG,KTC,2013-09-14 13:27:03,2013,14,war memorial,-0.077678075,51.50955928,1928-01-01T00:00:00Z,London Borough of Tower Hamlets,Middlesex
"Church of St Peter and St Paul, South Petherton",http://commons.wikimedia.org/wiki/Special:FilePath/South%20Petherton%20church.jpg,Stevekeiretsu,2017-09-10 00:16:05,2017,10,church building,-2.80806,50.9478,1201-01-01T00:00:00Z,South Petherton,Somerset
Church of the Holy Trinity,http://commons.wikimedia.org/wiki/Special:FilePath/Holy%20Trinity%20Theale%20%28south%29.jpg,BabelStone,2013-09-05 19:49:41,2013,5,church building,-1.08027,51.437,1820-01-01T00:00:00Z,Theale,Berkshire
Parish Church of St Mary,http://commons.wikimedia.org/wiki/Special:FilePath/Leighton%20Bromswold%20Church%20-%20geograph.org.uk%20-%201467609.jpg,File Upload Bot (Magnus Manske),2010-09-26 15:17:59,2010,26,church building,-0.362885,52.3642,1250-01-01T00:00:00Z,Leighton,Huntingdonshire
Church of St Bartholomew,http://commons.wikimedia.org/wiki/Special:FilePath/Elvaston%2C%20St%20Bartholomew.jpg,Flickr upload bot,2010-09-07 23:20:45,2010,7,church building,-1.39605,52.8926,1250-01-01T00:00:00Z,Elvaston,Derbyshire
Maesyronnen Chapel,http://commons.wikimedia.org/wiki/Special:FilePath/Capel%20Maesyronnen.jpg,Geograph Update Bot,2017-09-14 20:28:23,2017,14,Nonconformist chapel,-3.2025,52.0621,1640-01-01T00:00:00Z,Glasbury,Radnorshire
St Mary's Church,http://commons.wikimedia.org/wiki/Special:FilePath/October%20plenty.jpg,Mymuk,2013-09-07 00:35:54,2013,7,church building,-1.78209,51.7091,1480-01-01T00:00:00Z,Fairford,Gloucestershire
"Merton College, Fellows Quadrangle",http://commons.wikimedia.org/wiki/Special:FilePath/Fellows%20Quad%2C%20Merton%20College.jpg,Decan,2013-09-14 09:45:29,2013,14,architectural structure,-1.25169,51.7507,N/A,Oxford,Oxfordshire
Former Mast House And Mould Loft,http://commons.wikimedia.org/wiki/Special:FilePath/ChathamHDYM%26MLoft0004.JPG,Marku1988,2007-09-23 09:29:04,2007,23,architectural structure,0.528922,51.3966,N/A,Medway,Kent
Wenlock Priory,http://commons.wikimedia.org/wiki/Special:FilePath/Wenlock%20priory.JPG,Speedbird2064,2013-09-03 21:39:34,2013,3,priory,-2.55524,52.59714,0601-01-01T00:00:00Z,Much Wenlock,Shropshire
Church of St Mary Magdalene,http://commons.wikimedia.org/wiki/Special:FilePath/Whalton%20SChurch%20%28column%29.jpg,Hadrianus1959,2018-09-30 19:57:06,2018,30,church building,-1.79665,55.1259,1050-01-01T00:00:00Z,Whalton,Northumberland
Penshurst Place,http://commons.wikimedia.org/wiki/Special:FilePath/Penshurst%20place%20italian%20garden%20in%20spring.jpg,Penshurstplace,2011-09-19 22:25:00,2011,19,English country house; house museum; country house,0.183678,51.1746,N/A,Penshurst,Kent
Church of Saint Just,http://commons.wikimedia.org/wiki/Special:FilePath/St%20Just%20Church.jpg,Cbichescu,2013-09-08 20:20:25,2013,8,church building,-5.01568611,50.18215,1250-01-01T00:00:00Z,St Just in Roseland,Cornwall
"Church of St Peter, Wootton Wawen",http://commons.wikimedia.org/wiki/Special:FilePath/St%20Peters%20Church%20Wootton%20Wawen%202%20%286055635678%29.jpg,File Upload Bot (Magnus Manske),2012-09-05 12:39:06,2012,5,church building,-1.77707,52.2674,1035-01-01T00:00:00Z,Wootton Wawen,Warwickshire
Sail Loft,http://commons.wikimedia.org/wiki/Special:FilePath/ChathamHDYSail0004.JPG,ClemRutter,2007-09-22 22:30:35,2007,22,architectural structure,0.527656,51.3931,N/A,Medway,Kent
Wakefield Cathedral,http://commons.wikimedia.org/wiki/Special:FilePath/Wakefield%20-%20Cathedral.jpg,Skinsmoke,2009-09-10 17:46:52,2009,10,Anglican or Episcopal cathedral,-1.496944,53.683056,1450-01-01T00:00:00Z,Wakefield,Yorkshire
Little Cloister,http://commons.wikimedia.org/wiki/Special:FilePath/Little%20Cloister.JPG,Rodw,2013-09-12 20:55:34,2013,12,architectural structure,-2.24643,51.8681,N/A,Gloucester,Gloucestershire
Church of St Mary,http://commons.wikimedia.org/wiki/Special:FilePath/Saint%20Mary%27s%20parish%20Church%2C%20Tunstead%2C%20Norfolk.jpg,Stavros1,2008-09-10 19:53:15,2008,10,church building,1.41949,52.7527,1350-01-01T00:00:00Z,Tunstead,Norfolk
Ham House,http://commons.wikimedia.org/wiki/Special:FilePath/Ham%20House%2C%20London.jpg,Stevekeiretsu,2017-09-11 22:08:56,2017,11,house museum,-0.314166666,51.444166666,1610-01-01T00:00:00Z,London Borough of Richmond upon Thames,Surrey
Apsley House,http://commons.wikimedia.org/wiki/Special:FilePath/Apsley%20House%20-%20geograph.org.uk%20-%203763141.jpg,GeographBot,2022-09-05 01:41:11,2022,5,art museum; townhouse; mansion; house museum,-0.151666666,51.503472222,N/A,City of Westminster,Middlesex
Ruins to the North of the Cloister,http://commons.wikimedia.org/wiki/Special:FilePath/Bury%20St%20Edmunds%2C%20ruins%20to%20the%20north%20of%20the%20cloister%2C%20Abbey%20Gardens.jpg,Smb1001,2022-09-18 15:19:01,2022,18,monastery ruins,0.718901,52.2448,N/A,Bury St Edmunds,Suffolk
"81, Guildhall Street",http://commons.wikimedia.org/wiki/Special:FilePath/Bury%20St%20Edmunds%20-%2081%20Guildhall%20Street.jpg,Bibliographer07,2020-09-30 20:52:31,2020,30,building,0.711838,52.2436,N/A,Bury St Edmunds,Suffolk
Church of St. Andrew,http://commons.wikimedia.org/wiki/Special:FilePath/St%20Andrew%27s%20Church%2C%20Sherbourne%20St.%20John.jpg,BabelStone,2019-09-19 17:30:40,2019,19,church building,-1.10702,51.2958,1150-01-01T00:00:00Z,Sherborne St John,Hampshire
Church of St Michael and All Angels,http://commons.wikimedia.org/wiki/Special:FilePath/St%20Michael%20and%20All%20Angels%20Steventon%20Geograph-2612897-by-Bill-Nicholls.jpg,Geograph Update Bot,2017-09-14 20:36:55,2017,14,church building,-1.3306,51.6198,1350-01-01T00:00:00Z,Steventon,Berkshire
Barn Formerly Chapel 20 Metres East of Manor House,http://commons.wikimedia.org/wiki/Special:FilePath/Former%20Rockbourne%20Chapel%20-%20geograph.org.uk%20-%202515576.jpg,Geograph Update Bot,2017-09-13 20:21:04,2017,13,barn,-1.83672,50.9646,N/A,England,Hampshire
"St Mary's Church, Shrewsbury",http://commons.wikimedia.org/wiki/Special:FilePath/Parish%20Church%20of%20St%20Mary%20the%20Virgin%20-%20geograph.org.uk%20-%202005710.jpg,File Upload Bot (Magnus Manske),2010-09-25 21:14:26,2010,25,church building,-2.7513,52.7087,1150-01-01T00:00:00Z,Shrewsbury,Shropshire
Church of St Peter and St Paul,http://commons.wikimedia.org/wiki/Special:FilePath/St.%20Peter%20and%20St.%20Paul%20Church%20%2C%20Long%20Compton%20-%20geograph.org.uk%20-%201812326.jpg,File Upload Bot (Magnus Manske),2010-09-11 14:56:06,2010,11,church building,-1.58272,51.995,1250-01-01T00:00:00Z,Long Compton,Warwickshire
"Holy Trinity Church, Blythburgh",http://commons.wikimedia.org/wiki/Special:FilePath/Holy%20Trinity%20church%2C%20Blyhburgh.jpg,Mel Etitis~commonswiki,2005-09-11 12:05:39,2005,11,church building,1.59476,52.32117,1350-01-01T00:00:00Z,Blythburgh,Suffolk
"General Wolfe's House, With Railings",http://commons.wikimedia.org/wiki/Special:FilePath/General%20Wolfe%27s%20House%2C%20Trim%20Street%2C%20Bath%20-%20geograph.org.uk%20-%203802773.jpg,GeographBot,2022-09-15 06:56:40,2022,15,house,-2.36173,51.3827,1710-01-01T00:00:00Z,Bath and North East Somerset,Somerset
Church of St John the Baptist,http://commons.wikimedia.org/wiki/Special:FilePath/North%20Bovey%20church.jpg,Nilfanion,2009-09-20 12:16:47,2009,20,church building,-3.7842,50.6405,1250-01-01T00:00:00Z,North Bovey,Devon
Officers' Terrace,http://commons.wikimedia.org/wiki/Special:FilePath/ChathamHDYOfficersTerr0006.JPG,ClemRutter,2007-09-26 10:01:59,2007,26,terrace of houses,0.528163,51.3941,N/A,Medway,Kent
"St Andrew's Church, Sedbergh",http://commons.wikimedia.org/wiki/Special:FilePath/St%20Andrew%27s%20Church%2C%20Sedbergh.jpeg,Peter I. Vardy,2009-09-10 18:47:23,2009,10,church building,-2.5285,54.3231,1500-01-01T00:00:00Z,Sedbergh,Yorkshire
Arncliffe Hall,http://commons.wikimedia.org/wiki/Special:FilePath/Arncliffe%20Hall%202.jpg,Simon Armstrong,2013-09-19 21:13:59,2013,19,house,-1.30395,54.3953,N/A,Ingleby Arncliffe,Yorkshire
Royal Arsenal Brass Foundry,http://commons.wikimedia.org/wiki/Special:FilePath/Royal%20Arsenal%20Brass%20Foundry%2C%20Woolwich.jpg,Braveheart,2019-09-10 17:13:34,2019,10,building; foundry,0.06906,51.49225,1717-01-01T00:00:00Z,Royal Borough of Greenwich,Kent
Church of St John the Baptist,http://commons.wikimedia.org/wiki/Special:FilePath/Thaxted%20Parish%20Church%20of%20St.%20John%20the%20Baptist%2C%20St.%20Mary%20%26%20St.%20Laurence.JPG,Ihavesize16feet,2013-09-24 17:02:26,2013,24,church building,0.342144,51.9543,1340-01-01T00:00:00Z,Thaxted,Essex
"St Peter's Church, Sandwich",http://commons.wikimedia.org/wiki/Special:FilePath/StPetersChurch.Sandwich.jpg,China Crisis,2009-09-10 20:12:45,2009,10,church building,1.3403,51.2749,1100-01-01T00:00:00Z,Sandwich,Kent
St Augustine's Tower,http://commons.wikimedia.org/wiki/Special:FilePath/St%20Augustine%27s%20Tower.jpg,Emmabellechan,2018-09-19 23:00:51,2018,19,church tower,-0.0547444,51.5478,1550-01-01T00:00:00Z,London Borough of Hackney,Middlesex
"University College, Gatehouse University College, North Range",http://commons.wikimedia.org/wiki/Special:FilePath/University%20College%2C%20Oxford%2C%20Gatehouse.JPG,Emperorsaladin,2014-09-09 21:57:58,2014,9,gatehouse,-1.25199,51.7526,N/A,Oxford,Oxfordshire
Crayke Castle,http://commons.wikimedia.org/wiki/Special:FilePath/Crayke%20Castle%2C%20Hambledon%2C%20North%20Yorkshire.jpg,Geograph Update Bot,2017-09-11 21:19:57,2017,11,motte-and-bailey castle,-1.1453,54.1294,N/A,Crayke,Yorkshire
St Mary Aldermary,http://commons.wikimedia.org/wiki/Special:FilePath/St%20Mary%20Aldermary%2C%20Bow%20Lane%2C%20London%20EC4%20-%20geograph.org.uk%20-%20885953.jpg,File Upload Bot (Magnus Manske),2010-09-08 10:06:42,2010,8,church building,-0.0933333,51.5128,1650-01-01T00:00:00Z,City of London,Middlesex
"Sections of wall running south along Esplanade from south-west corner of Simnel Street to University Air Squadron Headquarters at south end of Bugle Street. Includes The Arcades, The West Gate, Blue Anchor Postern and Biddles Gate",http://commons.wikimedia.org/wiki/Special:FilePath/From%20the%20top%20of%20the%20wall%20looking%20north.jpg,Jwkuyser,2013-09-15 16:01:22,2013,15,city walls,-1.4069,50.8993,N/A,City of Southampton,Hampshire
"Church of St Peter, Staple Fitzpaine",http://commons.wikimedia.org/wiki/Special:FilePath/Staplefitzpainechurch.jpg,TimTay,2008-09-01 08:52:10,2008,1,church building,-3.0496,50.9588,1301-01-01T00:00:00Z,Staple Fitzpaine,Somerset
Newbridge Lodge,http://commons.wikimedia.org/wiki/Special:FilePath/Lodge%20at%20Newbridge.JPG,Johncjones6,2013-09-17 11:59:44,2013,17,gatehouse,-3.06282,52.9691,N/A,Cefn,Denbighshire
St Hilary's Chapel,http://commons.wikimedia.org/wiki/Special:FilePath/Tower%20of%20St%20Hilary%27s%20Church%2C%20Denbigh%20%288199394743%29.jpg,Ham II,2015-09-02 20:28:56,2015,2,tower; chapel; archaeological site; church ruin; church tower,-3.41985,53.1818,1334-01-01T00:00:00Z,Denbigh,Denbighshire
Powcher's Hall,http://commons.wikimedia.org/wiki/Special:FilePath/Ely%2C%20Powcher%27s%20Hall.jpg,Magnus Manske,2018-09-16 12:04:01,2018,16,architectural structure,0.264329,52.3981,N/A,Ely,Cambridgeshire
"Priory Church of St Mary & St Cuthbert, Bolton Abbey",http://commons.wikimedia.org/wiki/Special:FilePath/Bolton%20Priory%20west%20facade.jpg,Nthep,2017-09-21 14:59:39,2017,21,church building,-1.88867,53.98383,N/A,Bolton Abbey,Yorkshire
"St Peter's Church, Bournemouth",http://commons.wikimedia.org/wiki/Special:FilePath/St.%20Peter%27s%20Church%2C%20Bournemouth%2C%20from%20Hinton%20Road..JPG,Duncancourts,2012-09-05 09:12:22,2012,5,church building,-1.8755,50.7205,1851-01-01T00:00:00Z,"Bournemouth; Bournemouth, Christchurch and Poole",Hampshire
"Wool Exchange, Bradford",http://commons.wikimedia.org/wiki/Special:FilePath/The%20Wool%20Exchange%20Bradford%20now%20Waterstones%20bookstore.JPG,Sirenuk,2013-09-23 16:12:28,2013,23,architectural structure,-1.7523,53.7943,N/A,Bradford,Yorkshire
"St Cuthbert's, Earls Court",http://commons.wikimedia.org/wiki/Special:FilePath/St%20Cuthbert%27s%20Earls%20Court%2022.JPG,Edwardx,2013-09-24 19:24:13,2013,24,church building,-0.2005,51.4912,1884-01-01T00:00:00Z,Royal Borough of Kensington and Chelsea,Middlesex
Martholme,http://commons.wikimedia.org/wiki/Special:FilePath/Martholme%2C%20Great%20Harwood%2C%20Lancashire.jpg,Ken lowes,2013-09-28 10:55:40,2013,28,English country house,-2.3768,53.8,N/A,Hyndburn,Lancashire
Crawford Bridge,http://commons.wikimedia.org/wiki/Special:FilePath/Spetisbury%2C%20Crawford%20Bridge.JPG,Wulfrunian1,2013-09-16 12:00:07,2013,16,road bridge,-2.11636,50.8173,N/A,Spetisbury,Dorset
Part Of City Wall From The Newgate To Barnabys Tower,http://commons.wikimedia.org/wiki/Special:FilePath/Chester%20city%20wall%20beside%20Roman%20Garden%20and%20Park%20Street.jpg,Jhsteel,2013-09-27 18:37:06,2013,27,city walls,-2.88788,53.1884,N/A,Cheshire West and Chester,Cheshire
Eyam cross,http://commons.wikimedia.org/wiki/Special:FilePath/Churchyard%20Cross.jpg,Elisa.rolle,2013-09-07 22:32:22,2013,7,monumental cross,-1.67471,53.2841,N/A,Eyam,Derbyshire
7 Victoria Terrace,http://commons.wikimedia.org/wiki/Special:FilePath/7%20Victoria%20Terrace%202019%2C%20Beaumaris%2008.jpg,Braveheart,2019-09-30 20:11:55,2019,30,building,-4.08999,53.2634,N/A,Beaumaris,Anglesey
Middleham Castle,http://commons.wikimedia.org/wiki/Special:FilePath/MiddlehamCJW.jpg,CJ DUB~commonswiki,2007-09-29 14:55:59,2007,29,castle,-1.80685,54.28404,1190-01-01T00:00:00Z,Middleham,Yorkshire
Two Pairs Of Cherubs To North West Of The Grand Basin In Melbourne Hall Gardens,http://commons.wikimedia.org/wiki/Special:FilePath/Two%20Pairs%20of%20Cherubs%20in%20Melbourne%20Hall%20Gardens.jpg,G105b,2017-09-30 10:49:17,2017,30,architectural structure,-1.42062,52.8214,N/A,Melbourne,Derbyshire
Elstead Bridge,http://commons.wikimedia.org/wiki/Special:FilePath/Elstead%20Bridge%20DSC%201620.jpg,SovalValtos,2013-09-10 21:50:33,2013,10,road bridge,-0.705926,51.1863,N/A,Elstead,Surrey
Old Dee Bridge,http://commons.wikimedia.org/wiki/Special:FilePath/Dee%20bridge%20from%20Handbridge.jpg,Rodhullandemu,2020-09-20 18:39:32,2020,20,road bridge,-2.888718,53.185506,1400-01-01T00:00:00Z,Cheshire West and Chester,Cheshire
"St Nicholas's Church, Otham",http://commons.wikimedia.org/wiki/Special:FilePath/St%20Nicholas%27s%20Church%2C%20Otham-%20geograph.org.uk%20-%202209899.jpg,Geograph Update Bot,2017-09-11 18:14:20,2017,11,church building,0.562741,51.257816,1101-01-01T00:00:00Z,Otham,Kent
St Mary's Church,http://commons.wikimedia.org/wiki/Special:FilePath/Y%20Santes%20Fair%2C%20yr%20Waun%2CWrecsam%3B%20St%20Mary%27s%20Church%2C%20Chirk%2C%20Wrexham%2C%20Wales%2029.JPG,Llywelyn2000,2014-09-23 05:27:43,2014,23,church building,-3.05562,52.9314,1101-01-01T00:00:00Z,Chirk,Denbighshire
Chichester Cross,http://commons.wikimedia.org/wiki/Special:FilePath/Chichester%20Market%20Cross%20%28NHLE%20Code%201026826%29%20%28March%202012%29.JPG,Hassocks5489,2013-09-02 18:57:29,2013,2,market cross,-0.779191,50.8365,N/A,Chichester,Sussex
Doric Column In Chiswick Park North East Of Conservatory,http://commons.wikimedia.org/wiki/Special:FilePath/Doric%20column%20in%20Chiswick%20House%20grounds%20514.JPG,Patche99z,2013-09-16 14:24:19,2013,16,architectural structure,-0.259453,51.4853,N/A,London Borough of Hounslow,Middlesex
Mills And Bakery Royal William Victualling Yard,http://commons.wikimedia.org/wiki/Special:FilePath/Royal%20William%20Yard%20-%20market%20day.JPG,Jagojanner,2013-09-30 12:20:43,2013,30,mill building,-4.16393,50.3624,N/A,City of Plymouth,Devon
"The Deanery, Incorporating Prior's Hall",http://commons.wikimedia.org/wiki/Special:FilePath/1095514-deanery%20cathedral%20close%20winchester.jpg,GVR,2013-09-12 18:36:22,2013,12,architectural structure,-1.31347,51.0599,N/A,City of Winchester,Hampshire
Church of St Peter and St Paul,http://commons.wikimedia.org/wiki/Special:FilePath/Bishop%27s%20Caundle%20church.jpg,Ziijon,2017-09-02 19:54:52,2017,2,church building,-2.43357,50.9171,1350-01-01T00:00:00Z,Bishop's Caundle,Dorset
Carew Castle,http://commons.wikimedia.org/wiki/Special:FilePath/Carew%20Castle%20Summer%202018.jpg,Karen Sawyer,2018-09-28 17:27:47,2018,28,castle; Site of Special Scientific Interest; archaeological site,-4.8306594,51.698439,1270-01-01T00:00:00Z,Carew,Pembrokeshire
Bodysgallen Hall,http://commons.wikimedia.org/wiki/Special:FilePath/Bodysgallen%20Hall%2C%20Llandudno%2C%20Gwynedd%2C%20Wales%2021.jpg,Llywelyn2000,2023-09-06 06:01:17,2023,6,hotel,-3.80267,53.2968,N/A,Conwy,Caernarfonshire
"Church of All Saints, Riseley, Bedfordshire",http://commons.wikimedia.org/wiki/Special:FilePath/Church%20of%20All%20Saints%2C%20Riseley%2C%20Bedfordshire.jpg,Wetellthestory,2013-09-17 21:37:08,2013,17,church building,-0.4785,52.256,1150-01-01T00:00:00Z,Riseley,Bedfordshire
Part of City Wall from Barnabys Tower to tower east of Bridgegate,http://commons.wikimedia.org/wiki/Special:FilePath/Chester%20city%20walls%20beside%20River%20Dee.jpg,Jhsteel,2013-09-27 18:17:30,2013,27,city walls,-2.88796,53.187,N/A,Cheshire West and Chester,Cheshire
"St Bartholomew's Church, Binley",http://commons.wikimedia.org/wiki/Special:FilePath/WTC%20Dumbledore%27s%20Army%20StBartholemew%27sChurch4.JPG,File Upload Bot (Kaldari),2012-09-04 18:44:19,2012,4,church building,-1.44686,52.4032,1771-01-01T00:00:00Z,Coventry,Warwickshire
Werrington Park,http://commons.wikimedia.org/wiki/Special:FilePath/Werrington%20Park%20Geograph-2002485-by-Tim-Hardy.jpg,Geograph Update Bot,2017-09-10 16:10:56,2017,10,English country house,-4.361278,50.659788,N/A,Werrington,Devon
Church of St James,http://commons.wikimedia.org/wiki/Special:FilePath/St%20James%27%20church.jpg,Julianguffogg,2013-09-02 20:34:38,2013,2,church building,-4.48507,50.8751,1150-01-01T00:00:00Z,Kilkhampton,Cornwall
Treasurer's House,http://commons.wikimedia.org/wiki/Special:FilePath/Geograph%202759010%20Treasurer%27s%20House%2C%20Martock.jpg,Geograph Update Bot,2017-09-15 21:14:00,2017,15,house museum,-2.7726,50.9695,N/A,Martock,Somerset
"The Parish Church of St James, Ashurst",http://commons.wikimedia.org/wiki/Special:FilePath/Ashurst%20Church%2C%20West%20Sussex.jpg,Dougatwiki,2009-09-17 21:45:35,2009,17,church building,-0.327247,50.9348,1250-01-01T00:00:00Z,Ashurst,Sussex
Dark Entry,http://commons.wikimedia.org/wiki/Special:FilePath/Canterbury%20-%20dark%20entry%2001.jpg,Whn64,2013-09-25 18:59:07,2013,25,architectural structure,1.08297,51.2801,N/A,Canterbury,Kent
Church of St Guthlac,http://commons.wikimedia.org/wiki/Special:FilePath/St%20Guthlac%27s%20Church%2C%20Little%20Ponton%2C%20Lincolnshire.jpg,Robert EA Harvey,2013-09-01 20:28:09,2013,1,church building,-0.627135,52.8796,1050-01-01T00:00:00Z,Little Ponton and Stroxton,Lincolnshire
St German's Priory,http://commons.wikimedia.org/wiki/Special:FilePath/St%20Germans%20Church.jpg,Nilfanion,2013-09-05 00:23:39,2013,5,church building,-4.3096956,50.3966815,1150-01-01T00:00:00Z,St Germans,Cornwall
Pollard Cottage Pollard House,http://commons.wikimedia.org/wiki/Special:FilePath/Pollards%20House%20Pollards%20Cottage%2C%20Old%20Town%20House%2C%20Church%20House%20and%20spire%20of%20church%2C%20Lingfield%20geograph%201929778.jpg,Geograph Update Bot,2017-09-10 10:58:39,2017,10,building,-0.0142097,51.1758,N/A,Lingfield,Surrey
"St Johns College, Senior Common Room",http://commons.wikimedia.org/wiki/Special:FilePath/St%20John%27s%20Coll%20Oxford%20SCR.jpg,Camboxer,2016-09-04 18:06:18,2016,4,architectural structure,-1.2586,51.7565,N/A,Oxford,Oxfordshire
Wadworth Hall,http://commons.wikimedia.org/wiki/Special:FilePath/Wadworth%20-%20Wadworth%20Hall.jpg,Skinsmoke,2009-09-05 04:03:20,2009,5,house,-1.1473,53.469,N/A,Wadworth,Yorkshire
Gloucester Cathedral,http://commons.wikimedia.org/wiki/Special:FilePath/Gloucester%20Cathedral%20exterior%202019.JPG,Geni,2019-09-01 23:28:08,2019,1,Anglican or Episcopal cathedral,-2.24654,51.8673,0601-01-01T00:00:00Z,Gloucester,Gloucestershire
Chichester Guildhall,http://commons.wikimedia.org/wiki/Special:FilePath/Chichester%20Greyfriars%2C%20Prior%20Park.jpg,Michael Coppins,2016-09-03 18:30:59,2016,3,chapel; guild house,-0.776607,50.8392,1201-01-01T00:00:00Z,Chichester,Sussex
Church of St Dionysius,http://commons.wikimedia.org/wiki/Special:FilePath/Market%20Harborough%20Church.jpg,Flickr upload bot,2010-09-11 08:04:16,2010,11,church building,-0.921361,52.4786,1250-01-01T00:00:00Z,Harborough,Leicestershire
"35 - 50 Hamilton Square, Birkenhead",http://commons.wikimedia.org/wiki/Special:FilePath/35-51%20Hamilton%20Square.jpg,Paro7181,2019-09-08 18:52:20,2019,8,building,-3.01649,53.3928,N/A,Wirral,Cheshire
Willoughby Memorial Gallery,http://commons.wikimedia.org/wiki/Special:FilePath/Charles%20Read%20grammar%20school-Geograph-1955330-by-Bob-Harvey.jpg,Geograph Update Bot,2017-09-10 11:44:32,2017,10,art museum; school building; art library,-0.51816,52.8122,N/A,Corby Glen,Lincolnshire
Church of St Mary,http://commons.wikimedia.org/wiki/Special:FilePath/Rye%2C%20St%20Mary%27s%20Church%20from%20the%20river.jpg,Michael Coppins,2016-09-03 16:06:19,2016,3,church building,0.734193,50.9501,1220-01-01T00:00:00Z,Rye,Sussex
"37 Stall Street and Arlington House flats 10, 11, 21, 22, 32, 33 and public areas only",http://commons.wikimedia.org/wiki/Special:FilePath/37%2C%20Stall%20Street%2C%20Bath.JPG,Plumbum64,2013-09-04 17:06:09,2013,4,shop; apartment building,-2.36052,51.38098,N/A,Bath and North East Somerset,Somerset
Castle Farmhouse,http://commons.wikimedia.org/wiki/Special:FilePath/Grade%20I%20listed%20Castle%20Farmhouse%2C%20St%20Georges%20%28geograph%202164659%29.jpg,KJP1,2019-09-10 08:49:42,2019,10,farmhouse,-3.2994,51.4828,N/A,St Georges-super-Ely,Glamorgan
Old Church of Saint Werburg,http://commons.wikimedia.org/wiki/Special:FilePath/Warburton%20Old%206.jpg,Peter I. Vardy,2008-09-25 11:02:38,2008,25,church building,-2.4572838,53.402129,N/A,Warburton,Cheshire
Pont Fawr,http://commons.wikimedia.org/wiki/Special:FilePath/Pont%20Fawr%20Bridge%2C%20Llanrwst.jpg,Mark Warren 1973,2020-09-23 16:26:05,2020,23,bridge; stone bridge,-3.79766,53.1369,N/A,Llanrwst,Denbighshire
"Well House, Oxford Castle",http://commons.wikimedia.org/wiki/Special:FilePath/Well%20House%2C%20Oxford%20Castle%2C%20seen%20from%20the%20entrance%2C%20January%202019.jpg,Heretodare,2020-09-29 17:30:34,2020,29,well house,-1.26308,51.75217,N/A,Oxford,Oxfordshire
Banqueting House,http://commons.wikimedia.org/wiki/Special:FilePath/Wrest%20Park%20Banqueting%20House.jpg,Iloxley,2013-09-30 16:06:26,2013,30,pavilion,-0.410954,52.0004,1711-01-01T00:00:00Z,Silsoe,Bedfordshire
Hospital of St Cross,http://commons.wikimedia.org/wiki/Special:FilePath/Hospital%20of%20St%20Cross%2C%20Winchester.jpg,Michael Coppins,2020-09-21 16:59:49,2020,21,almshouse,-1.322,51.048,1130-01-01T00:00:00Z,City of Winchester,Hampshire
Abbot's Hospital,http://commons.wikimedia.org/wiki/Special:FilePath/Abbot%27s%20Hospital%2C%20Guildford%201.jpg,Mike Peel,2012-09-06 21:26:06,2012,6,hospital building,-0.571037,51.2364,N/A,Guildford,Surrey
Newton Cap Bridge,http://commons.wikimedia.org/wiki/Special:FilePath/Newton%20Cap%20Viaduct-by-Neville-Davison.jpg,Pit-yacker,2009-09-20 17:26:23,2009,20,road bridge,-1.68356,54.6671,N/A,Bishop Auckland,County Durham
Church of All Saints,http://commons.wikimedia.org/wiki/Special:FilePath/All%20Saints%20Church%2C%20Staunton.jpg,Seth Whales,2008-09-16 23:04:40,2008,16,church building,-2.65313,51.8103,1150-01-01T00:00:00Z,Staunton Coleford,Gloucestershire
"Church of St John the Baptist, Wellington",http://commons.wikimedia.org/wiki/Special:FilePath/St%20John%20the%20Baptist%2C%20Wellington.jpg,Rodw,2009-09-27 11:33:12,2009,27,church building,-3.225323,50.981163,1401-01-01T00:00:00Z,Wellington,Somerset
The Refectory,http://commons.wikimedia.org/wiki/Special:FilePath/Easebourne%20Priory%20Refectory%20DSC%202056.jpg,SovalValtos,2013-09-19 19:50:43,2013,19,architectural structure,-0.726202,50.9949,N/A,Easebourne,Sussex
"All Saints Church, Allesley",http://commons.wikimedia.org/wiki/Special:FilePath/WTC%20Jez%20Sutton%20jez-10.jpg,File Upload Bot (Kaldari),2012-09-03 12:50:53,2012,3,church building,-1.55748,52.4231,1250-01-01T00:00:00Z,Coventry,Warwickshire
"Sudeley Castle, Tithe Barn",http://commons.wikimedia.org/wiki/Special:FilePath/Sudeley%20Castle%2C%20Tithe%20Barn.JPG,June Woolerton,2013-09-29 16:35:38,2013,29,architectural structure,-1.95704,51.9485,N/A,Sudeley,Gloucestershire
St Annes Chapel And Old Grammar School Including Walls And Gates And Piers,http://commons.wikimedia.org/wiki/Special:FilePath/Grammar%20school%20where%20Gay%20was%20educated%20-%20Devonshire%20characters%20and%20strange%20events.jpg,Mattisse,2010-09-25 22:31:38,2010,25,chapel,-4.05876,51.0801,N/A,Barnstaple,Devon
"St Peter and St Paul's Church, Bolton-by-Bowland",http://commons.wikimedia.org/wiki/Special:FilePath/St%20Peter%20and%20St%20Paul%27s%20Church%2C%20Bolton-by-Bowland%20-%20geograph.org.uk%20-%201924818.jpg,File Upload Bot (Magnus Manske),2010-09-12 19:41:53,2010,12,church building,-2.3267,53.9402,1450-01-01T00:00:00Z,Bolton-by-Bowland,Yorkshire
Oare House,http://commons.wikimedia.org/wiki/Special:FilePath/Oare%20House.JPG,Rob Stallard,2013-09-22 17:17:20,2013,22,house; building,-1.77735,51.366,N/A,Wilcot,Wiltshire
"St Peter's Church, Thorington",http://commons.wikimedia.org/wiki/Special:FilePath/Thorington%20-%20Church%20of%20St%20Peter.jpg,Geograph Update Bot,2017-09-04 22:55:35,2017,4,church building,1.55302,52.3119,1150-01-01T00:00:00Z,Thorington,Suffolk
"St Michael and All Angels Church, Badminton",http://commons.wikimedia.org/wiki/Special:FilePath/St%20Michael%20%26%20All%20Angels%20Church%2C%20Great%20Badminton%2C%20Gloucestershire%20%282011%29.JPG,Ray Bird ActonT.,2013-09-14 22:43:08,2013,14,church building,-2.28,51.5443,1785-01-01T00:00:00Z,Badminton,Gloucestershire
Church of All Saints,http://commons.wikimedia.org/wiki/Special:FilePath/All%20Saints%20Church%2CEarsham%20-%20geograph.org.uk%20-%20986171.jpg,Geograph Update Bot,2017-09-01 23:34:58,2017,1,church building,1.42142,52.4476,1300-01-01T00:00:00Z,Earsham,Norfolk
Ashton Hall,http://commons.wikimedia.org/wiki/Special:FilePath/Ashton%20Hall%2C%20north%20wing%20-%20geograph.org.uk%20-%201674514.jpg,File Upload Bot (Magnus Manske),2011-09-09 18:12:00,2011,9,clubhouse; English country house; mansion,-2.8229,54.0089,N/A,Thurnham,Lancashire
Garden walls and gatepiers to the Abbey House,http://commons.wikimedia.org/wiki/Special:FilePath/Garden%20Walls%20and%20Gatepiers%20to%20the%20Abbey%20House%202013-09-04%2012-32-10.jpg,Aude,2013-09-04 11:33:27,2013,4,wall,-0.60873,54.4886,N/A,Whitby,Yorkshire
North Gate,http://commons.wikimedia.org/wiki/Special:FilePath/North%20Gate%20Salisbury%202%20%285690859348%29.jpg,File Upload Bot (Magnus Manske),2012-09-05 12:42:51,2012,5,city gate,-1.79769,51.0669,N/A,Salisbury,Wiltshire
"Clare College, Gates And Railings To Trinity Hall Lane",http://commons.wikimedia.org/wiki/Special:FilePath/Clare%20College%2C%20Cambridge%20-%20Gates%20and%20Railings%20to%20Trinity%20Hall%20Lane.JPG,The wub,2013-09-07 14:20:57,2013,7,architectural structure,0.115971,52.2051,N/A,Cambridge,Cambridgeshire
Drinkstone Post Mill,http://commons.wikimedia.org/wiki/Special:FilePath/Drinkstone%20post%20mill%20-%20geograph.org.uk%20-%202693636.jpg,GeographBot,2021-09-30 18:58:20,2021,30,post mill,0.87423,52.22299,1600-01-01T00:00:00Z,Drinkstone,Suffolk
"St Mary's and St Nicholas's Church, Beaumaris",http://commons.wikimedia.org/wiki/Special:FilePath/Eglwys%20y%20Santes%20Fair%20a%20Sant%20Nicolas%2C%20Biwmares%20-%20St%20Mary%27s%20and%20St%20Nicholas%27s%20Church%2C%20Beaumaris%2C%20Anglesey%2C%20Wales%2016.png,Llywelyn2000,2023-09-11 07:52:50,2023,11,church building,-4.0943,53.2637,1330-01-01T00:00:00Z,Beaumaris,Anglesey
Church Of St Eurgain And St Peter,http://commons.wikimedia.org/wiki/Special:FilePath/Church%20Of%20St%20Eurgain%20And%20St%20Peter%2C%20Northop.jpg,Rigbo,2017-09-08 11:49:14,2017,8,church building,-3.12985,53.2081,1254-01-01T00:00:00Z,Northop,Flintshire
St Gwynhoydl's Church,http://commons.wikimedia.org/wiki/Special:FilePath/St%20Gwynhoedl%27s%20Church%2C%20Llangwnnadl%2C%20east%20side%20and%20church%20yard.jpg,Tukbassler,2017-09-16 20:24:25,2017,16,church building,-4.6624,52.8667,1301-01-01T00:00:00Z,Tudweiliog,Caernarfonshire
Abbey Gatehouse And Adjoining Wall To East,http://commons.wikimedia.org/wiki/Special:FilePath/Kingswood%20Abbey%20Gatehouse.JPG,Throwawayhack,2010-09-12 21:40:17,2010,12,gatehouse,-2.36674,51.6265,N/A,Kingswood,Gloucestershire
Church of the Holy Cross,http://commons.wikimedia.org/wiki/Special:FilePath/Gargoyle%20with%20glasses%2C%20Holy%20Cross%20church%2C%20Great%20Ponton%20%28geograph%203483666%29.jpg,Geograph Update Bot,2017-09-17 13:45:04,2017,17,church building,-0.627586,52.8638,1250-01-01T00:00:00Z,Great Ponton,Lincolnshire
Beaumaris Castle,http://commons.wikimedia.org/wiki/Special:FilePath/Castell%20Beaumaris%20Castle%2C%20Ynys%20Mon%20%28Anglesey%29%2C%20Wales%2044.png,Llywelyn2000,2023-09-11 06:35:39,2023,11,castle,-4.08957,53.264908,1295-01-01T00:00:00Z,Beaumaris,Anglesey
"St James' Priory, Bristol",http://commons.wikimedia.org/wiki/Special:FilePath/Stjameschurch.jpg,Angusmclellan,2008-09-19 09:24:16,2008,19,church building,-2.59367,51.4585,1101-01-01T00:00:00Z,City of Bristol,Gloucestershire
Sandbeck Park,http://commons.wikimedia.org/wiki/Special:FilePath/CS%20p5.372%20-%20Sandbeck%20Park%2C%20Yorkshire%20-%20Morris%27s%20County%20Seats%2C%201880.jpg,Kaliforniyka,2016-09-13 00:16:15,2016,13,stately home,-1.14556,53.4062,1626-01-01T00:00:00Z,Maltby,Yorkshire
Cloister Gate,http://commons.wikimedia.org/wiki/Special:FilePath/Cloister%20Gate.JPG,Dhowes9,2013-09-20 19:33:28,2013,20,gate,0.502802,51.3886,N/A,Medway,Kent
Woolbeding House,http://commons.wikimedia.org/wiki/Special:FilePath/Woolbeding%20House%20DSC%202033.jpg,SovalValtos,2013-09-19 18:06:14,2013,19,building,-0.757057,50.9972,N/A,Woolbeding with Redford,Sussex
Woodspring Priory,http://commons.wikimedia.org/wiki/Special:FilePath/Woodspring%20Priory%2C%20Priory%20Church.JPG,Rodw,2013-09-03 15:25:31,2013,3,priory; archaeological site,-2.94541,51.3902,1201-01-01T00:00:00Z,Kewstoke,Somerset
Vicarage House,http://commons.wikimedia.org/wiki/Special:FilePath/Vicarage%20House%2C%20Wiswell.jpg,Trappedinburnley,2017-09-25 18:00:04,2017,25,building,-2.3889,53.8318,N/A,Wiswell,Lancashire
Royal Naval College North East Building Queen Anne's Quarter,http://commons.wikimedia.org/wiki/Special:FilePath/EH1290044%20Royal%20Naval%20College%20North%20East%20Building%20Queen%20Anne%27s%20Quarter%2001.JPG,KTC,2013-09-02 23:38:30,2013,2,architectural structure,-0.00490238,51.484,N/A,Royal Borough of Greenwich,Kent
The Law Library,http://commons.wikimedia.org/wiki/Special:FilePath/Rear%20of%20Cathedral%20Close%2C%20Exeter%20%282021-09-12%29%2003.jpg,Sic19,2021-09-12 18:53:31,2021,12,library building,-3.52904,50.7231,N/A,Exeter,Devon
St Peter's Church,http://commons.wikimedia.org/wiki/Special:FilePath/Eglwys%20Sant%20Pedr%2C%20Rhuthun%20-%20St%20Peter%27s%20Church%20Rhuthun%20%28English%20translation%20-%20Ruthin%29%2C%20Cymru%20%28Wales%29%2006.jpg,Llywelyn2000,2022-09-29 18:55:55,2022,29,church building,-3.3108,53.1154,1310-01-01T00:00:00Z,Ruthin,Denbighshire
All Hallows Staining,http://commons.wikimedia.org/wiki/Special:FilePath/AllHallowsStaining%20Tower.JPG,JohnArmagh,2007-09-21 15:54:14,2007,21,church building,-0.080488888,51.511577777,1150-01-01T00:00:00Z,City of London,Middlesex
Dock Traffic Office,http://commons.wikimedia.org/wiki/Special:FilePath/Dock%20Traffic%20Office%2C%20Liverpool%20%2803%29.JPG,HJ Mitchell,2013-09-26 13:47:52,2013,26,architectural structure,-2.99207,53.4015,N/A,Liverpool,Lancashire
St Annes Gate,http://commons.wikimedia.org/wiki/Special:FilePath/1355835-St%20Anne%27s%20Gate.JPG,GVR,2013-09-12 20:15:40,2013,12,gate,-1.79373,51.0659,N/A,Salisbury,Wiltshire
"All Saints Church, Ellough",http://commons.wikimedia.org/wiki/Special:FilePath/Ellough%20-%20Church%20of%20All%20Saints.jpg,Geograph Update Bot,2017-09-04 21:46:46,2017,4,church building,1.5915,52.4233,1350-01-01T00:00:00Z,Ellough,Suffolk
Martyrs' Cottage,http://commons.wikimedia.org/wiki/Special:FilePath/Tollpuddle%20Loveless%20cottage.jpg,William Avery,2006-09-16 13:19:34,2006,16,cottage,-2.29204,50.749,N/A,Tolpuddle,Dorset
St Sampson's Church,http://commons.wikimedia.org/wiki/Special:FilePath/CHURCH%20OF%20ST%20SAMPSON%20South%20Side.jpg,Doowyah,2014-09-27 18:43:44,2014,27,church building,-1.85796,51.6406,1101-01-01T00:00:00Z,Cricklade,Wiltshire
Church of St Mary,http://commons.wikimedia.org/wiki/Special:FilePath/Worsbrough%20-%20Saint%20Mary%27s%20Church.jpg,Skinsmoke,2009-09-04 15:49:48,2009,4,church building,-1.4741,53.5191,1150-01-01T00:00:00Z,Barnsley; Worsbrough,Yorkshire
"St Peter's and St Paul's Church, East Sutton",http://commons.wikimedia.org/wiki/Special:FilePath/St%20Peter%27s%20and%20St%20Paul%27s%20Church%2C%20East%20Sutton%203.jpg,Geograph Update Bot,2017-09-11 18:17:32,2017,11,church building,0.615919,51.215906,1201-01-01T00:00:00Z,East Sutton,Kent
Braybrooke House,http://commons.wikimedia.org/wiki/Special:FilePath/Braybrooke%20House%2020130408%20222.JPG,Elisa.rolle,2013-09-06 22:26:21,2013,6,house,-1.79965,51.0664,N/A,Salisbury,Wiltshire
Caerhays Castle,http://commons.wikimedia.org/wiki/Special:FilePath/Caerhays%20Castle.jpg,Cbichescu,2013-09-08 18:36:07,2013,8,castle; English country house,-4.84647,50.23984,N/A,St Michael Caerhays,Cornwall
Guildhall,http://commons.wikimedia.org/wiki/Special:FilePath/Guildhall%2C%20Londres%2C%20Inglaterra%2C%202014-08-11%2C%20DD%20139.JPG,Poco a poco,2014-09-21 21:19:36,2014,21,building; town hall,-0.091791,51.515894,1440-01-01T00:00:00Z,City of London,Middlesex
"Peterhouse, Gates and piers of the Master's Lodge",http://commons.wikimedia.org/wiki/Special:FilePath/Cambridge%20-%20Peterhouse%20-%20gates%20to%20the%20Master%27s%20Lodge.jpg,Bibliographer07,2020-09-30 19:37:32,2020,30,gate; gatepost,0.119,52.20109,1702-01-01T00:00:00Z,Cambridge,Cambridgeshire
"Outer Bailey Half Moon Battery, Flanking Wall And Bridge",http://commons.wikimedia.org/wiki/Special:FilePath/Carlisle%20Castle%20courtyard.png,CompleteAnonymity,2019-09-21 11:42:11,2019,21,bridge; wall,-2.94169,54.8972,N/A,Carlisle,Cumberland
"St Magnus-the-Martyr, City of London",http://commons.wikimedia.org/wiki/Special:FilePath/Flickr%20-%20Duncan~%20-%20St%20Magnus%20vs%20The%20Shard.jpg,Matanya,2012-09-11 17:40:49,2012,11,Church of England parish church,-0.086336111,51.509280555,1671-01-01T00:00:00Z,City of London,Middlesex
"Buckingham Palace Forecourt Gate Piers, Gates, Railings And Lamps",http://commons.wikimedia.org/wiki/Special:FilePath/Buckingham%20Palace%20Gates.%20London.%201905.jpg,Phillip Medhurst,2011-09-15 11:28:30,2011,15,gate,-0.141347,51.5015,1901-01-01T00:00:00Z,City of Westminster,Middlesex
Stone Entrance Piers In Front Of Chiswick House,http://commons.wikimedia.org/wiki/Special:FilePath/Chiswick%20House%20pillar%20676.JPG,Patche99z,2013-09-27 12:39:20,2013,27,architectural structure,-0.25807,51.4834,N/A,London Borough of Hounslow,Middlesex
Guest Quarters Of The Monastery,http://commons.wikimedia.org/wiki/Special:FilePath/Ely%2C%20Guest%20Quarters%20Of%20The%20Monastery.jpg,Magnus Manske,2018-09-16 11:27:14,2018,16,architectural structure,0.262269,52.3975,N/A,Ely,Cambridgeshire
"Victoria Terrace, Beaumaris",http://commons.wikimedia.org/wiki/Special:FilePath/Rhes%20Victoria%20Terrace%2C%20Biwmaers%20%28Beaumaris%29%2C%20Ynys%20Mon%20%28Anglesey%29%2C%20Wales%2008.png,Llywelyn2000,2023-09-11 07:11:00,2023,11,terrace of houses,-4.09059,53.2632,1833-01-01T00:00:00Z,Beaumaris,Anglesey
Radcliffe Observatory,http://commons.wikimedia.org/wiki/Special:FilePath/Green%20Templeton%20College.jpg,Cwawebber,2008-09-25 08:54:27,2008,25,university observatory,-1.2639,51.7608,1794-01-01T00:00:00Z,Oxford,Oxfordshire
Lichfield Cathedral,http://commons.wikimedia.org/wiki/Special:FilePath/Lich%20Cath%20Face.jpg,Smalljim,2011-09-22 16:32:17,2011,22,Anglican or Episcopal cathedral,-1.8303,52.6855,1195-01-01T00:00:00Z,Lichfield,Staffordshire
Gwydir Castle,http://commons.wikimedia.org/wiki/Special:FilePath/Gwydir%20Castle%20-%20view%20from%20SE.jpg,ArchHist,2018-09-25 19:38:09,2018,25,tower house; history museum; castle,-3.8010732,53.132877,N/A,Trefriw,Caernarfonshire
Church of Holy Trinity,http://commons.wikimedia.org/wiki/Special:FilePath/Church%20Charwelton.jpg,Angusmclellan,2008-09-23 09:55:10,2008,23,church building,-1.20447,52.1953,1350-01-01T00:00:00Z,Charwelton,Northamptonshire
St Brothen's Church,http://commons.wikimedia.org/wiki/Special:FilePath/St%20Brothen%200005.jpg,Velella,2010-09-01 11:48:22,2010,1,church building,-4.0522,52.9503,1201-01-01T00:00:00Z,Llanfrothen,Merionethshire
1A and 1-6 Wood Street,http://commons.wikimedia.org/wiki/Special:FilePath/1A%20and%201-6%2C%20Wood%20Street%2C%20Bath.jpg,Plumbum64,2013-09-02 18:50:14,2013,2,office building; terrace of houses,-2.36251,51.38332,N/A,Bath and North East Somerset,Somerset
Brick Alley Almshouses,http://commons.wikimedia.org/wiki/Special:FilePath/Brick%20Alley%20Almshouses%2C%20Abingdon%2C%20Oxfordshire%20%28geograph%203104957%29.jpg,Geograph Update Bot,2017-09-16 18:41:16,2017,16,almshouse,-1.28283,51.6672,N/A,Abingdon on Thames,Berkshire
"St Mary and St Peter's Church, Wilmington",http://commons.wikimedia.org/wiki/Special:FilePath/St%20Mary%20and%20St%20Peter%27s%20Church%2C%20Wilmington.jpeg,Peter I. Vardy,2009-09-16 15:52:48,2009,16,church building,0.1906,50.8175,1150-01-01T00:00:00Z,Long Man,Sussex
"Church of St Deinst, Llangarron",http://commons.wikimedia.org/wiki/Special:FilePath/St%20Deinst.jpg,Brassknocker,2018-09-11 23:07:16,2018,11,church building,-2.68377,51.8871,1350-01-01T00:00:00Z,Llangarron,Herefordshire
Peckover House and Garden,http://commons.wikimedia.org/wiki/Special:FilePath/Peckover-house-wisbech.jpg,Theyellowtulip,2013-09-30 01:01:11,2013,30,building; house museum,0.155386,52.6651,N/A,Wisbech,Cambridgeshire
South Screen To Buckingham Palace Forecourt Backing Onto Ambassadors' Court,http://commons.wikimedia.org/wiki/Special:FilePath/South%20screen%20to%20Buckingham%20Palace%20forecourt%20backing%20onto%20Ambassadors%27%20Court.jpg,Amandhamrait,2013-09-29 11:50:40,2013,29,architectural structure,-0.141528,51.5007,N/A,City of Westminster,Middlesex
Church of St Mary,http://commons.wikimedia.org/wiki/Special:FilePath/St%20Mary%27s%20Church%2C%20Reed%203%202020-09-02.jpg,Colin,2020-09-30 20:31:16,2020,30,church building,-0.018249,52.0035,1050-01-01T00:00:00Z,Reed,Hertfordshire
Wollaton Hall,http://commons.wikimedia.org/wiki/Special:FilePath/Wollaton%20Hall%2C%20Nottingham%20%281%29.JPG,HJ Mitchell,2013-09-03 16:04:20,2013,3,English country house; natural history museum; house museum,-1.20966,52.9479,N/A,City of Nottingham,Nottinghamshire
Church of St Andrew,http://commons.wikimedia.org/wiki/Special:FilePath/Ogbourne%20St%20Andrew%20Church.JPG,Rob Stallard,2013-09-22 17:10:14,2013,22,church building,-1.73036,51.4498,N/A,Ogbourne St Andrew,Wiltshire
Church of St Nicholas,http://commons.wikimedia.org/wiki/Special:FilePath/Parish%20Church%20of%20St%20Nicholas.JPG,MondayLad,2013-09-05 00:23:47,2013,5,church building,-1.30654,52.8469,1200-01-01T00:00:00Z,Lockington-Hemington,Leicestershire
"Trinity College, South Range",http://commons.wikimedia.org/wiki/Special:FilePath/Trinity%20College%2C%20South%20Range%202013-09-20%2009-38-11.jpg,Jarry1250,2013-09-20 08:39:12,2013,20,architectural structure,-1.25703,51.7552,N/A,Oxford,Oxfordshire
Norman Staircase,http://commons.wikimedia.org/wiki/Special:FilePath/Canterbury%20norman%20staircase.JPG,Velvet,2010-09-25 22:33:44,2010,25,architectural structure,1.08347,51.2815,N/A,Canterbury,Kent
Church of Saint Anthony,http://commons.wikimedia.org/wiki/Special:FilePath/St%20Anthony%20in%20Meneage%2C%20Cornwall.jpg,Flickr upload bot,2010-09-07 23:49:46,2010,7,church building,-5.10091,50.0896,1150-01-01T00:00:00Z,St Anthony-in-Meneage,Cornwall
"14, South Parade",http://commons.wikimedia.org/wiki/Special:FilePath/14%20South%20Parade%2C%20Bath.JPG,Plumbum64,2013-09-02 19:03:52,2013,2,building,-2.35528,51.3802,N/A,Bath and North East Somerset,Somerset
Headstone Manor,http://commons.wikimedia.org/wiki/Special:FilePath/Headstone%20Manor.JPG,BernardBurns,2013-09-29 01:45:43,2013,29,manor house; house museum,-0.354245,51.5947,N/A,London Borough of Harrow,Middlesex
Birkenhead Priory,http://commons.wikimedia.org/wiki/Special:FilePath/Birkenhead%20Priory%20from%20St%20Mary%27s%20Tower%202019-2.jpg,Rodhullandemu,2019-09-23 13:21:47,2019,23,priory; local authority museum,-3.01175,53.38958,1101-01-01T00:00:00Z,Wirral,Cheshire
The Great Cloisters of Westminster Abbey,http://commons.wikimedia.org/wiki/Special:FilePath/The%20Great%20Cloisters%20of%20Westminster%20Abbey.JPG,Xaviguillen,2013-09-22 12:28:30,2013,22,chapel; chapter house; cloister,-0.12752,51.49905,N/A,City of Westminster,Middlesex
Hall's Croft,http://commons.wikimedia.org/wiki/Special:FilePath/Hall%27s%20Croft.JPG,Mango salsa,2013-09-15 22:15:04,2013,15,architectural structure,-1.70866,52.1886,N/A,Stratford-upon-Avon,Warwickshire
Church of St James,http://commons.wikimedia.org/wiki/Special:FilePath/Back%20of%20Church%20of%20St.%20James%2C%20Staple.JPG,KaleidoscopeMeg,2013-09-30 19:12:40,2013,30,church building,1.25147,51.2637,1150-01-01T00:00:00Z,Staple,Kent
Tarr Steps At Ngr Ss 8677 3211,http://commons.wikimedia.org/wiki/Special:FilePath/Somerset-TarrSteps.jpg,MikPeach,2017-09-28 14:28:49,2017,28,architectural structure,-3.61772,51.0771,N/A,Withypool and Hawkridge,Somerset
The Painted Chamber (walsingham House),http://commons.wikimedia.org/wiki/Special:FilePath/Ely%2C%20The%20Painted%20Chamber%20%28walsingham%20House%29.jpg,Magnus Manske,2018-09-16 12:08:39,2018,16,architectural structure,0.264561,52.3981,N/A,Ely,Cambridgeshire
Bayham Old Abbey,http://commons.wikimedia.org/wiki/Special:FilePath/Bayham%20Old%20Abbey.jpg,Mstanyauk,2014-09-19 00:20:42,2014,19,abbey; monastery ruins,0.355679,51.104,1201-01-01T00:00:00Z,Frant,Sussex
"Cast House And Foundry, Blaenavon Ironworks",http://commons.wikimedia.org/wiki/Special:FilePath/Cast%20House%20Roof.jpg,WelshDave,2019-09-19 21:11:25,2019,19,building,-3.08944,51.777,N/A,Blaenavon,Monmouthshire
Building R133 At Former Royal Aircraft Establishment,http://commons.wikimedia.org/wiki/Special:FilePath/Building%20R133%2002.JPG,Lewis Hulbert,2013-09-22 19:14:36,2013,22,building,-0.755855,51.2859,N/A,Rushmoor,Hampshire
Gateway At Axis To West Of Charlton House,http://commons.wikimedia.org/wiki/Special:FilePath/Charlton%20House%20Gateway.jpg,Simon Armstrong,2013-09-21 17:59:23,2013,21,gate,0.0361365,51.4806,N/A,Royal Borough of Greenwich,Kent
Blackwall Basin,http://commons.wikimedia.org/wiki/Special:FilePath/EH1242449%20Blackwall%20Basin%2001.jpg,KTC,2013-09-02 20:17:58,2013,2,architectural structure,-0.0112295,51.5035,N/A,London Borough of Tower Hamlets,Middlesex
"Oriel College, South Range",http://commons.wikimedia.org/wiki/Special:FilePath/Oriel%20Front%20South.jpg,Camboxer,2017-09-10 18:55:54,2017,10,architectural structure,-1.25366,51.7512,N/A,Oxford,Oxfordshire
N Gatehouse At Ewenny Priory (house),http://commons.wikimedia.org/wiki/Special:FilePath/North%20Gatehouse%20at%20Ewenny%20Priory%202.JPG,FruitMonkey,2013-09-29 17:33:00,2013,29,gatehouse,-3.56919,51.4887,N/A,Ewenny,Glamorgan
Two Statues Flanking Chiswick House,http://commons.wikimedia.org/wiki/Special:FilePath/Chiswick%20House%20statues%20487%2B9r.jpg,Patche99z,2013-09-16 14:17:30,2013,16,statue,-0.258671,51.4835,N/A,London Borough of Hounslow,Middlesex
Church of St Helen,http://commons.wikimedia.org/wiki/Special:FilePath/Burghwallis%201.JPG,DamonGS,2013-09-08 21:30:22,2013,8,church building,-1.19002,53.6021,0950-01-01T00:00:00Z,Burghwallis,Yorkshire
"Corpus Christi College, Front Quadrangle, North And West Range, And East Range Excluding The Hall",http://commons.wikimedia.org/wiki/Special:FilePath/Corpus%20Christi%20College%2C%20Oxford%20-%20Quad.jpg,Mr14159,2020-09-03 08:11:16,2020,3,architectural structure,-1.25348,51.7508,N/A,Oxford,Oxfordshire
Hylton Castle,http://commons.wikimedia.org/wiki/Special:FilePath/Hylton%20Castle.jpg,File Upload Bot (Magnus Manske),2009-09-16 05:47:45,2009,16,castle,-1.44318,54.9225,N/A,Sunderland,County Durham
Grovelands House,http://commons.wikimedia.org/wiki/Special:FilePath/Grovelands%20House%2C%20The%20Bourne%2C%20Southgate%2C%20N14.jpg,Stu's Images,2011-09-25 13:25:39,2011,25,house,-0.117504,51.6322,1797-01-01T00:00:00Z,London Borough of Enfield,Middlesex
St Oswald Vicarage,http://commons.wikimedia.org/wiki/Special:FilePath/No%2092%20Main%20Street%20Old%20Vicarage.jpg,FFNick,2013-09-26 09:59:41,2013,26,clergy house,-2.76838,54.1441,N/A,Warton,Lancashire
Caernarfon town walls,http://commons.wikimedia.org/wiki/Special:FilePath/Town%20walls%2C%20Caernarfon%20-%20geograph.org.uk%20-%20823515.jpg,Hchc2009,2012-09-26 21:13:05,2012,26,city walls,-4.2782549,53.138725,N/A,Caernarfon,Caernarfonshire
Beeleigh Abbey,http://commons.wikimedia.org/wiki/Special:FilePath/Beeleigh%20Abbey%201.JPG,Mariatnt,2013-09-17 11:17:23,2013,17,English country house,0.6635,51.7379,1101-01-01T00:00:00Z,Maldon,Essex
Bath Abbey,http://commons.wikimedia.org/wiki/Special:FilePath/Bath%20cathedrale%20ext.jpg,Velvet,2011-09-11 13:44:07,2011,11,parish church,-2.358888888,51.381388888,1572-01-01T00:00:00Z,Bath; Bath and North East Somerset,Somerset
Rochester City Walls,http://commons.wikimedia.org/wiki/Special:FilePath/Rochester%20City%20Walls.JPG,Dhowes9,2013-09-20 19:33:32,2013,20,city walls,0.504647,51.3874,N/A,Medway,Kent
"Old St Peter and St Paul's Church, Albury",http://commons.wikimedia.org/wiki/Special:FilePath/Old%20St%20Peter%20and%20Paul%20Albury%20view%20from%20south-east.jpg,BabelStone,2019-09-22 11:47:53,2019,22,church building,-0.479,51.22,1150-01-01T00:00:00Z,Albury,Surrey
Down House,http://commons.wikimedia.org/wiki/Special:FilePath/Down%20House.jpg,File Upload Bot (Magnus Manske),2008-09-09 21:28:17,2008,9,house museum; history museum,0.053333333,51.331388888,N/A,London Borough of Bromley,Kent
Prysten House,http://commons.wikimedia.org/wiki/Special:FilePath/Prysten%20House%2C%20Plymouth.jpg,Nilfanion,2013-09-07 18:38:25,2013,7,building,-4.13982,50.3695,N/A,City of Plymouth,Devon
Church of St Nicholas,http://commons.wikimedia.org/wiki/Special:FilePath/Church%20of%20Saint%20Nicholas%2C%20Barfrestone.JPG,KaleidoscopeMeg,2013-09-29 17:32:16,2013,29,church building,1.24006,51.2056,1180-01-01T00:00:00Z,Eythorne,Kent
Wiston Castle,http://commons.wikimedia.org/wiki/Special:FilePath/Wiston-castle-pembrokeshire-may-2018.jpg,Lucy-sheers,2018-09-03 14:00:22,2018,3,motte-and-bailey castle; archaeological site,-4.8711441,51.826785,1050-01-01T00:00:00Z,Wiston,Pembrokeshire
Caludon Castle,http://commons.wikimedia.org/wiki/Special:FilePath/WTC%20Mum%27s%20taxi%20Caludon%20Castle%201.JPG,File Upload Bot (Kaldari),2012-09-03 09:14:08,2012,3,castle; archaeological site,-1.45171,52.4182,N/A,Coventry,Warwickshire
Colchester Roman town walls,http://commons.wikimedia.org/wiki/Special:FilePath/The%20Roman%20Town%20Wall%2C%20Head%20Street%20to%20the%20Balkerne%20Gate%203.JPG,Mariatnt,2013-09-22 18:19:41,2013,22,city walls,0.89673,51.8924,N/A,Colchester,Essex
Bingley Five Rise Locks,http://commons.wikimedia.org/wiki/Special:FilePath/Leeds%20Liverpool%20canal%205%20rise%20locks.JPG,Sirenuk,2013-09-23 16:08:41,2013,23,lock; canal inclined plane,-1.8379,53.8558,N/A,Bingley,Yorkshire
Fulham Palace,http://commons.wikimedia.org/wiki/Special:FilePath/Fulham%20Palace.jpg,Michael Coppins,2020-09-20 18:04:32,2020,20,house museum; independent museum,-0.21605,51.47044,N/A,London Borough of Hammersmith and Fulham,Middlesex
Church of St Lawrence,http://commons.wikimedia.org/wiki/Special:FilePath/Canon%20Pyon%20Church%20-%20geograph.org.uk%20-%20469980.jpg,File Upload Bot (Magnus Manske),2010-09-12 23:37:28,2010,12,church building,-2.80492,52.1381,1250-01-01T00:00:00Z,Canon Pyon,Herefordshire
"St John's College, Gateway And Piers Adjoining The Old Bridge",http://commons.wikimedia.org/wiki/Special:FilePath/St%20John%27s%20College%2C%20Cambridge%20-%20Gateway%20and%20Piers%20Adjoining%20the%20Old%20Bridge.JPG,The wub,2013-09-07 14:32:48,2013,7,gatepost; gate,0.115805,52.208,N/A,Cambridge,Cambridgeshire
Yeaveley Preceptory,http://commons.wikimedia.org/wiki/Special:FilePath/Preceptory%20near%20Stydd%20Hall-geograph.org.uk-4148932.jpg,Geograph Update Bot,2017-09-18 21:20:00,2017,18,building; ruins,-1.74545,52.95677,N/A,Yeaveley,Derbyshire
"Church of Saint Leonard, Bengeo",http://commons.wikimedia.org/wiki/Special:FilePath/St%20Leonard%27s%20Church%2C%20Bengeo%201%202020-08-23.jpg,Colin,2020-09-09 17:50:22,2020,9,church building,-0.08,51.8053,1150-01-01T00:00:00Z,Hertford,Hertfordshire
"St. Michael's Church, Southampton",http://commons.wikimedia.org/wiki/Special:FilePath/St%20Michael%27s%20Church%2C%20Southampton%2C%20June%202014%20%281%29.jpg,Richard Nevell (WMUK),2014-09-13 18:13:39,2014,13,church building,-1.40515,50.89959,1001-01-01T00:00:00Z,City of Southampton,Hampshire
Revesby Abbey,http://commons.wikimedia.org/wiki/Special:FilePath/Revesby%20Abbey%20from%20southeast%20in%20Lincolnshire%20England%202001.jpg,Acabashi,2015-09-24 19:17:50,2015,24,architectural structure; English country house,-0.047043975,53.1432797,N/A,Revesby,Lincolnshire
"Church of St John the Baptist, Halesowen",http://commons.wikimedia.org/wiki/Special:FilePath/Halesowen%20Church%204%20%284205849913%29.jpg,File Upload Bot (Magnus Manske),2012-09-05 12:32:41,2012,5,church building,-2.05093,52.4502,1150-01-01T00:00:00Z,Dudley,Worcestershire
Arundel Castle,http://commons.wikimedia.org/wiki/Special:FilePath/Arundel-Castle.jpg,Egjoni98,2016-09-16 21:47:47,2016,16,castle,-0.553611111,50.856111111,1068-01-01T00:00:00Z,Arundel,Sussex
East Lodge Gate House,http://commons.wikimedia.org/wiki/Special:FilePath/East%20Lodge%20Gate%20House.JPG,Jarry1250,2013-09-15 09:20:03,2013,15,architectural structure,0.904937,51.8901,N/A,Colchester,Essex
Church of St Michael,http://commons.wikimedia.org/wiki/Special:FilePath/Breaston%20Derbyshire%20Saint%20Michael.JPG,Rpriv2000,2010-09-04 18:56:13,2010,4,church building,-1.31710556,52.89698611,1050-01-01T00:00:00Z,Breaston,Derbyshire
Bastions And Curtain Wall About 10 Metres South East Of Saltwood Castle,http://commons.wikimedia.org/wiki/Special:FilePath/Saltwood%20Castle%20wall%2003.JPG,Edgepedia,2013-09-27 17:28:36,2013,27,architectural structure,1.08512,51.0815,N/A,Saltwood,Kent
Church of St Peter,http://commons.wikimedia.org/wiki/Special:FilePath/St%20Peters%20Church%20Mancetter.jpg,Kelly,2015-09-05 10:45:56,2015,5,church building,-1.52879,52.5671,1150-01-01T00:00:00Z,Mancetter,Warwickshire
Malling House,http://commons.wikimedia.org/wiki/Special:FilePath/Malling%20House%2C%20Lewes%20%28geograph%203375033%29.jpg,File Upload Bot (Magnus Manske),2014-09-09 12:09:45,2014,9,house,0.012187,50.8823,N/A,Lewes,Sussex
Ashton Court,http://commons.wikimedia.org/wiki/Special:FilePath/Ashton%20Court%20Mansion.jpg,William Avery,2006-09-02 18:24:13,2006,2,house museum,-2.6446,51.4479,N/A,Long Ashton,Somerset
Church of All Saints,http://commons.wikimedia.org/wiki/Special:FilePath/Darsham%20-%20Church%20of%20All%20Saints.jpg,Geograph Update Bot,2017-09-03 14:50:18,2017,3,church building,1.54716,52.2741,1150-01-01T00:00:00Z,Darsham,Suffolk
Nettlecombe Court,http://commons.wikimedia.org/wiki/Special:FilePath/Geograph%203335728%20Nettlecombe%20Court.jpg,Geograph Update Bot,2017-09-16 23:22:33,2017,16,English country house,-3.34983,51.13127,N/A,Nettlecombe,Somerset
"Forecourt Walls, Gate Piers, and Gates of Nos 39 to 46",http://commons.wikimedia.org/wiki/Special:FilePath/Forecourt%20Walls%2020130408%20206.JPG,Elisa.rolle,2013-09-06 22:14:58,2013,6,wall,-1.79775,51.0667,N/A,Salisbury,Wiltshire
Church of St Leonard,http://commons.wikimedia.org/wiki/Special:FilePath/St%20Leonards%20Church%2C%20Thorpe%20%28geograph%201879765%29.jpg,Geograph Update Bot,2017-09-10 09:10:48,2017,10,church building,-1.76833,53.0485,1050-01-01T00:00:00Z,Thorpe,Derbyshire
St Deiniol's Church,http://commons.wikimedia.org/wiki/Special:FilePath/St%20Deiniol%20Church%20Worthenbury.jpg,Outwivcamera,2018-09-12 09:19:58,2018,12,church building,-2.86748,53.0102,1736-01-01T00:00:00Z,Willington Worthenbury,Flintshire
Dover House,http://commons.wikimedia.org/wiki/Special:FilePath/Scotland%20Office%2C%20Dover%20House%2C%20Whitehall%2001.jpg,Paul the Archivist,2017-09-25 21:53:16,2017,25,building,-0.126944444,51.504166666,N/A,City of Westminster,Middlesex
"Church of St Mary the Virgin, Brancaster",http://commons.wikimedia.org/wiki/Special:FilePath/St%20Mary%20the%20Virgin%20Brancaster%20Norfolk.JPG,Rpriv2000,2009-09-02 20:28:32,2009,2,church building,0.637582,52.9632,N/A,Brancaster,Norfolk
"St Mark's Church, Worsley",http://commons.wikimedia.org/wiki/Special:FilePath/St%20marks%20worsley.jpg,Parrot of Doom,2009-09-04 17:55:28,2009,4,church building,-2.385,53.502,1844-01-01T00:00:00Z,Salford,Lancashire
Former Private Apartments At Guildford Castle,http://commons.wikimedia.org/wiki/Special:FilePath/Guildford%20Castle%20%284%29.jpg,Richard Nevell (WMUK),2013-09-30 16:18:15,2013,30,architectural structure,-0.573074,51.2338,N/A,Guildford,Surrey
All Hallows-on-the-Wall,http://commons.wikimedia.org/wiki/Special:FilePath/Church%20of%20All%20Hallows%2C%202013%20%284%29.JPG,Elisa.rolle,2013-09-06 15:51:09,2013,6,church building,-0.084333333,51.516602777,1767-01-01T00:00:00Z,City of London,Middlesex
"Churchyard Walls And Railings Surrounding Church Of St Martin In The Fields On North, South, East And West Sides",http://commons.wikimedia.org/wiki/Special:FilePath/Saint%20Martin%20in%20the%20Fields%2002.jpg,File Upload Bot (Magnus Manske),2010-09-08 15:53:29,2010,8,churchyard wall,-0.126442,51.5091,N/A,City of Westminster,Middlesex
"St Michael and All Angels' Church, Church Broughton",http://commons.wikimedia.org/wiki/Special:FilePath/Church%20Broughton%2C%20St%20Michael.jpg,Flickr upload bot,2010-09-07 23:17:41,2010,7,church building,-1.6962,52.901,1150-01-01T00:00:00Z,Church Broughton,Derbyshire
St Meugan's Church,http://commons.wikimedia.org/wiki/Special:FilePath/Eglwys%20Sant%20Meugan%2C%20Llanrhud%2C%20Rhuthun%2C%20Sir%20Ddinbych%2045.jpg,Llywelyn2000,2013-09-29 21:05:58,2013,29,church building,-3.28616,53.1101,1254-01-01T00:00:00Z,Llanbedr-Dyffryn-Clwyd,Denbighshire
"St Peter's Church, Congleton",http://commons.wikimedia.org/wiki/Special:FilePath/St%20Peter%27s%20Church%2C%20Congleton.jpg,Peter I. Vardy,2007-09-04 20:07:49,2007,4,church building,-2.2116,53.1618,1740-01-01T00:00:00Z,Congleton,Cheshire
"Church of St Mary the Virgin, Keysoe",http://commons.wikimedia.org/wiki/Special:FilePath/Keysoe%20Church%20of%20St%20Marys.jpg,Flutophilus,2013-09-24 10:14:16,2013,24,church building,-0.4283,52.2501,1150-01-01T00:00:00Z,Bolnhurst and Keysoe,Bedfordshire
Bolling Hall Museum,http://commons.wikimedia.org/wiki/Special:FilePath/Bolling%20Hall.jpg,StuartBurrows,2013-09-14 16:03:47,2013,14,house museum; local authority museum,-1.73861,53.7789,N/A,Bradford,Yorkshire
Church of St Mary Magdalene,http://commons.wikimedia.org/wiki/Special:FilePath/St%20Mary%20Magdalene%20Church%2C%20Barkway%201%202020-09-02.jpg,Colin,2020-09-30 20:18:22,2020,30,church building,0.0129665,52.0017,1250-01-01T00:00:00Z,Barkway,Hertfordshire
"Holy Trinity Church, South Kensington",http://commons.wikimedia.org/wiki/Special:FilePath/Holy%20Trinity%2C%20Prince%20Consort%20Road%20-%20geograph.org.uk%20-%201885375.jpg,File Upload Bot (Magnus Manske),2010-09-08 14:18:19,2010,8,church building,-0.178889,51.5,1901-01-01T00:00:00Z,City of Westminster,Middlesex
Series of herms and altars laid out in a Y to the east of the Ring Pond,http://commons.wikimedia.org/wiki/Special:FilePath/Gardens%20at%20Chatsworth%20%28geograph%203193858%29.jpg,Geograph Update Bot,2017-09-16 20:38:05,2017,16,altar; herma,-1.60948,53.2256,N/A,Chatsworth,Derbyshire
"Brasenose College, East Range, The Old Quadrangle",http://commons.wikimedia.org/wiki/Special:FilePath/Buildings%20facing%20the%20large%20quad%20at%20Brasenose%20College.jpg,Wimblin,2018-09-30 10:19:15,2018,30,architectural structure,-1.25446,51.7532,N/A,Oxford,Oxfordshire
"St John's College, Gateway To St John's Street To South Of The College Buildings",http://commons.wikimedia.org/wiki/Special:FilePath/St%20John%27s%20College%2C%20Cambridge%20-%20Gateway%20to%20St%20John%27s%20Street%20to%20South%20of%20the%20College%20Buildings.JPG,The wub,2013-09-07 14:44:42,2013,7,gate,0.117701,52.2075,N/A,Cambridge,Cambridgeshire
Lanhydrock House,http://commons.wikimedia.org/wiki/Special:FilePath/Lanhydrock%20%282759114593%29.jpg,File Upload Bot (Magnus Manske),2012-09-05 14:32:59,2012,5,manor house; English country house; house museum,-4.69781,50.44096,N/A,Lanhydrock,Cornwall
Remains of Shell Keep at Guildford Castle,http://commons.wikimedia.org/wiki/Special:FilePath/Guildford%20Castle%20%282%29.jpg,Richard Nevell (WMUK),2013-09-30 16:55:01,2013,30,shell keep,-0.572476,51.2341,N/A,Guildford,Surrey
"St James’s Church, Piccadilly",http://commons.wikimedia.org/wiki/Special:FilePath/Church%20of%20St%20Jamess%20Piccadilly%202%20%285123798865%29.jpg,File Upload Bot (Magnus Manske),2012-09-05 12:23:48,2012,5,church building,-0.136667,51.5086,1676-01-01T00:00:00Z,City of Westminster,Middlesex
Brooks's,http://commons.wikimedia.org/wiki/Special:FilePath/Brooks%20Club%20London.jpg,Ricardalovesmonuments,2022-09-12 07:29:42,2022,12,gentlemen's club,-0.13972222,51.50666667,N/A,City of Westminster,Middlesex
Remains Of Monastic Infirmary,http://commons.wikimedia.org/wiki/Special:FilePath/Remains%20of%20Monastic%20Infirmary.jpg,Rodw,2013-09-13 17:26:42,2013,13,arcade; architectural structure,-2.24618,51.8681,N/A,Gloucester,Gloucestershire
"Church of St Michael, Shepton Beauchamp",http://commons.wikimedia.org/wiki/Special:FilePath/Shepton%20Beauchamp%20church.jpg,Stevekeiretsu,2017-09-04 21:21:53,2017,4,church building,-2.84917,50.9503,1201-01-01T00:00:00Z,Shepton Beauchamp,Somerset
Church of St Peter and St Paul,http://commons.wikimedia.org/wiki/Special:FilePath/Fressingfield%20-%20Church%20of%20St%20Peter%20%26%20St%20Paul.jpg,Geograph Update Bot,2017-09-03 16:56:49,2017,3,church building,1.3191,52.3487,1350-01-01T00:00:00Z,Fressingfield,Suffolk
St Mary's Church,http://commons.wikimedia.org/wiki/Special:FilePath/St%20Mary%27s%20Church%2C%20Ellesmere.jpg,Geograph Update Bot,2017-09-10 21:07:25,2017,10,church building,-2.88959,52.90752,1300-01-01T00:00:00Z,Ellesmere Urban,Shropshire
Senate House,http://commons.wikimedia.org/wiki/Special:FilePath/Cambridge-University-Senate-House.jpg,Benjah-bmm27,2006-09-19 17:51:45,2006,19,university building,0.117378,52.2056,1730-01-01T00:00:00Z,Cambridge,Cambridgeshire
"St Michael and All Angels' Church, Ashton-under-Lyne",http://commons.wikimedia.org/wiki/Special:FilePath/St%20Michaels%20and%20All%20Saints%20Church%2C%20Ashton-under-Lyne%202008.jpg,Nev1,2008-09-15 23:57:36,2008,15,church building,-2.0897,53.4877,1450-01-01T00:00:00Z,Tameside,Lancashire
Greatham Church,http://commons.wikimedia.org/wiki/Special:FilePath/Greatham%20Church%2C%20exterior.jpg,Michael Coppins,2016-09-03 17:47:06,2016,3,church building,-0.5158,50.934,1001-01-01T00:00:00Z,Parham,Sussex
Pope's Tower Approximately 35 Metres South East Of Harcourt House,http://commons.wikimedia.org/wiki/Special:FilePath/Pope%27s%20Tower.jpg,Btelsp2411,2018-09-01 13:26:26,2018,1,tower,-1.39839,51.7479,N/A,Stanton Harcourt,Oxfordshire
"St Mary the Virgin, Hanbury",http://commons.wikimedia.org/wiki/Special:FilePath/Hanbury%20Church%20from%20North-East.JPG,Hjheath1,2013-09-03 15:09:07,2013,3,church building,-2.06847,52.2777,1250-01-01T00:00:00Z,Hanbury,Worcestershire
"Holy Cross Church, Epperstone",http://commons.wikimedia.org/wiki/Special:FilePath/Holy%20Cross%20Church%2C%20Epperstone%2C%20Nottinghamshire%20%284%29.jpg,Enchufla Con Clave,2018-09-30 22:13:40,2018,30,church building,-1.03119167,53.03019722,1250-01-01T00:00:00Z,Epperstone,Nottinghamshire
Berrystead,http://commons.wikimedia.org/wiki/Special:FilePath/The%20Berrystead%20%28geograph%204113046%29.jpg,Plucas58,2015-09-11 18:11:26,2015,11,building,-0.465918,52.4818,N/A,Oundle,Northamptonshire
"9-13, South Parade",http://commons.wikimedia.org/wiki/Special:FilePath/9-13%20South%20Parade%2C%20Bath.JPG,Plumbum64,2013-09-02 19:01:19,2013,2,building,-2.35562,51.3802,N/A,Bath and North East Somerset,Somerset
"Church of St Michael and All Angels, Hamstall Ridware",http://commons.wikimedia.org/wiki/Special:FilePath/St%20Michael%27s%20Church%2C%20Hamstall%20Ridware.jpg,Bs0u10e01,2011-09-18 16:00:34,2011,18,church building,-1.844824,52.771741,1150-01-01T00:00:00Z,Hamstall Ridware,Staffordshire
St Sampson's Church,http://commons.wikimedia.org/wiki/Special:FilePath/CHURCH%20OF%20ST%20SAMPSON%20South%20Side.jpg,Doowyah,2014-09-27 18:43:44,2014,27,church building,-1.85796,51.6406,0950-01-01T00:00:00Z,Cricklade,Wiltshire
Osborne House,http://commons.wikimedia.org/wiki/Special:FilePath/Osborne%20House%20from%20the%20air.jpg,Humac45,2014-09-02 13:43:46,2014,2,English country house; house museum; history museum,-1.27005,50.75053,1845-01-01T00:00:00Z,East Cowes,Hampshire
Winnock's Almshouses,http://commons.wikimedia.org/wiki/Special:FilePath/Winnock%27s%20Almshouses.JPG,Mariatnt,2013-09-06 19:09:56,2013,6,almshouse,0.906329,51.8851,N/A,Colchester,Essex
"St Nicolas' Church, Shoreham-by-Sea",http://commons.wikimedia.org/wiki/Special:FilePath/St%20Nicolas%27%20Church%2C%20Old%20Shoreham%2C%20West%20Sussex.jpg,Hohum,2010-09-22 17:14:49,2010,22,church building,-0.2856,50.8408,0901-01-01T00:00:00Z,Adur,Sussex
B Block,http://commons.wikimedia.org/wiki/Special:FilePath/Chester%20Castle%20-%20outer%20bailey%20-%20B%20Block.JPG,Worm That Turned,2013-09-07 19:08:46,2013,7,architectural structure,-2.89267,53.1856,N/A,Chester Castle,Cheshire
"Church of St John the Baptist, Flitton",http://commons.wikimedia.org/wiki/Special:FilePath/Flitton%20church.JPG,Simonxag,2007-09-12 01:06:51,2007,12,church building,-0.45791,52.01098,N/A,Flitton and Greenfield,Bedfordshire
"Main Gate, Royal William Victualling Yard",http://commons.wikimedia.org/wiki/Special:FilePath/Main%20Gate%2C%20Royal%20William%20Yard.jpg,Hannibalsmith100,2016-09-29 23:33:07,2016,29,architectural structure,-4.16288,50.3625,N/A,City of Plymouth,Devon
"St Michael's Church, Upton Cressett",http://commons.wikimedia.org/wiki/Special:FilePath/St%20Michael%27s%20Church%20-%20geograph.org.uk%20-%20423560.jpg,File Upload Bot (Magnus Manske),2010-09-25 21:58:16,2010,25,church building,-2.5085,52.5289,1201-01-01T00:00:00Z,Upton Cressett,Shropshire
"St Oswald's Church, Grasmere",http://commons.wikimedia.org/wiki/Special:FilePath/St%20Oswalds%27%20Church%2C%20Grasmere.jpg,Geograph Update Bot,2017-09-09 23:16:25,2017,9,church building,-3.0237,54.4575,1350-01-01T00:00:00Z,Lakes,Westmorland
Church of St Symphorian,http://commons.wikimedia.org/wiki/Special:FilePath/St%20Symphorian%27s%20Church%2C%20Veryan%20Geograph-3241224-by-Dave-Kelly.jpg,Geograph Update Bot,2017-09-16 21:49:33,2017,16,church building,-4.92155,50.2195,1300-01-01T00:00:00Z,Veryan,Cornwall
Caernarfon Castle,http://commons.wikimedia.org/wiki/Special:FilePath/Castell%20Caernarfon%20yn%20y%20cyfnos%20yn%202023%20-%20Castell%20Caernarfon%2C%20Gwynedd%2C%20Wales%20at%20Dusk%20-%202023%2010.png,Llywelyn2000,2023-09-05 17:23:53,2023,5,castle; tourist attraction; archaeological site,-4.276889,53.139306,1283-01-01T00:00:00Z,Caernarfon,Caernarfonshire
Palace of Westminster,http://commons.wikimedia.org/wiki/Special:FilePath/Houses%20of%20Parliament%20in%202022%20%28cropped%29.jpg,Cakelot1,2022-09-06 20:12:03,2022,6,parliament building,-0.124166666,51.499444444,N/A,City of Westminster,Middlesex
"Numbers 1, 2 And 3 Albany Terrace And Attached Railings",http://commons.wikimedia.org/wiki/Special:FilePath/1-3%20Albany%20Terrace%2C%20Marylebone%20Road%2C%20London.jpg,Paul the Archivist,2017-09-21 00:04:07,2017,21,architectural structure,-0.144964,51.5243,N/A,London Borough of Camden,Middlesex
St Cynhafal's Church,http://commons.wikimedia.org/wiki/Special:FilePath/Awyrlun%20o%20Eglwys%20Llangynhafal%20-%20Aerial%20photograph%20of%20Llangynhafal%20Church%2C%20Rhuthun%2C%20Cymru%20%28Wales%29%2014.png,Llywelyn2000,2022-09-05 07:34:14,2022,5,church building,-3.29797,53.1606,1254-01-01T00:00:00Z,Llangynhafal,Denbighshire
Church of St Mary,http://commons.wikimedia.org/wiki/Special:FilePath/St%20Mary%27s%20Church%20Sulhamstead.jpg,BabelStone,2013-09-16 18:29:57,2013,16,church building,-1.07398,51.4069,1250-01-01T00:00:00Z,Sulhamstead,Berkshire
Church of St Margaret,http://commons.wikimedia.org/wiki/Special:FilePath/St%20Margaret%27s%20Church%2C%20Bilsthorpe%20%28geograph%204313136%29.jpg,Plucas58,2015-09-14 13:04:11,2015,14,church building,-1.02309,53.1354,1250-01-01T00:00:00Z,Bilsthorpe,Nottinghamshire
Church of St Peter and St Paul,http://commons.wikimedia.org/wiki/Special:FilePath/SSPeter%26Paul%27sChurch%20StOsyth.JPG,JohnArmagh,2007-09-01 19:44:20,2007,1,church building,1.07713,51.7985,1150-01-01T00:00:00Z,St Osyth,Essex
Guildhall,http://commons.wikimedia.org/wiki/Special:FilePath/The%20Guildhall%2C%20High%20Street%2C%20Worcester.jpg,Enrichdesign,2013-09-17 14:07:02,2013,17,town hall,-2.2208,52.1912,N/A,Worcester,Worcestershire
The Copper Horse,http://commons.wikimedia.org/wiki/Special:FilePath/Statue%20of%20George%20III%20-%20The%20Copper%20Horse.jpg,Sirpecangum,2013-09-10 17:03:51,2013,10,sculpture,-0.6093,51.4451,N/A,Old Windsor,Berkshire
All Saints Church,http://commons.wikimedia.org/wiki/Special:FilePath/All%20Saints%27%20Church%20Cambridge%20exterior.jpg,Solipsist~commonswiki,2005-09-25 22:19:16,2005,25,church building,0.123231,52.2083,1870-01-01T00:00:00Z,Cambridge,Cambridgeshire
Former Chapel At Skipton Castle,http://commons.wikimedia.org/wiki/Special:FilePath/Skipton%20Castle%20dg8.JPG,Davegill70,2013-09-14 16:31:46,2013,14,chapel,-2.01612,53.9639,N/A,Skipton,Yorkshire
"Apothecaries' Hall, London",http://commons.wikimedia.org/wiki/Special:FilePath/Apothecaries%20Hall%2020130324%20091.JPG,Rotatebot,2013-09-07 21:16:40,2013,7,architectural structure,-0.103055,51.5129,N/A,City of London,Middlesex
"St Nicholas' Church, Gloucester",http://commons.wikimedia.org/wiki/Special:FilePath/St%20Nicholas%20Church%2C%20Gloucester%20-%20geograph.org.uk%20-%201432164.jpg,File Upload Bot (Magnus Manske),2010-09-27 19:57:46,2010,27,church building,-2.24974,51.86731,1150-01-01T00:00:00Z,Gloucester,Gloucestershire
St. Margaret's Church,http://commons.wikimedia.org/wiki/Special:FilePath/St%20Margaret%27s%20Church%2C%20Roath.JPG,Ham II,2013-09-02 14:28:05,2013,2,church building,-3.15473,51.4929,1870-01-01T00:00:00Z,Cardiff; Penylan,Glamorgan
St Baglan's Church,http://commons.wikimedia.org/wiki/Special:FilePath/Eglwys%20Sant%20Baglan%20%28Llanfaglan%29%2C%20Caernarfon%2C%20Gwynedd%20-%20Church%20of%20St%20Baglan%20A%20Grade%20I%20Listed%20Building%20in%20Bontnewydd%2C%20Gwynedd%2C%20Wales%2055.png,Llywelyn2000,2023-09-05 18:45:56,2023,5,church building,-4.3095,53.121,1201-01-01T00:00:00Z,Llanfaglan; Bontnewydd,Caernarfonshire
The Queen's Hall (headmaster's House),http://commons.wikimedia.org/wiki/Special:FilePath/Ely%2C%20The%20Queen%27s%20Hall%20%28headmaster%27s%20House%29.jpg,Magnus Manske,2018-09-16 11:31:51,2018,16,architectural structure,0.262436,52.3979,N/A,Ely,Cambridgeshire
Church of St Mary,http://commons.wikimedia.org/wiki/Special:FilePath/Bucklebury%20Church.JPG,Rob Stallard,2013-09-22 16:13:39,2013,22,church building,-1.20581,51.4341,1150-01-01T00:00:00Z,Bucklebury,Berkshire
Buckingham Palace Lodge To North Of Entrance To Royal Mews Buckingham Palace Lodges North And South Entrance To Royal Mews,http://commons.wikimedia.org/wiki/Special:FilePath/Royal%20Mews%2C%20North%20Lodge.jpg,Ham II,2014-09-13 12:12:15,2014,13,architectural structure,-0.143764,51.4987,N/A,City of Westminster,Middlesex
Screen Wall And Gateways To Forecourt Of St Paul's Deanery,http://commons.wikimedia.org/wiki/Special:FilePath/EH1359191%20Screen%20Wall%20and%20Gateways%20to%20Forecourt%20of%20St%20Paul%27s%20Deanery.jpg,KTC,2013-09-22 23:45:47,2013,22,wall,-0.100293,51.5133,N/A,City of London,Middlesex
38–48 Belgrave Square,http://commons.wikimedia.org/wiki/Special:FilePath/38%E2%80%9348%20Belgrave%20Square%2001.JPG,Edwardx,2013-09-30 23:22:34,2013,30,terrace of houses,-0.152585,51.5002,N/A,City of Westminster,Middlesex
"Balliol College, Library, Front Quadrangle",http://commons.wikimedia.org/wiki/Special:FilePath/Balliol%20College%20Oxford%20Old%20Library%20%285647001647%29.jpg,File Upload Bot (Magnus Manske),2012-09-05 12:05:30,2012,5,library building,-1.25755,51.7547,N/A,Oxford,Oxfordshire
"Tea House and Bridge at TL 522 385, North West of Audley End House",http://commons.wikimedia.org/wiki/Special:FilePath/Audley%20End%20House%20%26%20Gardens%20%28EH%29%2006-05-2012%20%287710645536%29.jpg,Tm,2017-09-01 14:35:56,2017,1,footbridge; summer house,0.22,52.023888888,N/A,Saffron Walden,Essex
Parish Church of St Michael,http://commons.wikimedia.org/wiki/Special:FilePath/St.%20Michael%27s%20Church%20Graveyard%2C%20Lyme%20Regis%2C%20Dorset.jpg,Flickr upload bot,2010-09-14 10:45:01,2010,14,church building,-2.93168,50.7257,1150-01-01T00:00:00Z,Lyme Regis,Dorset
Bell Hall,http://commons.wikimedia.org/wiki/Special:FilePath/Track%20to%20Bell%20Hall%20-%20geograph.org.uk%20-%202561708.jpg,GeographBot,2021-09-02 15:42:30,2021,2,house,-1.08916,53.8865,N/A,Naburn,Yorkshire
Mount Grace Priory,http://commons.wikimedia.org/wiki/Special:FilePath/Mount%20Grace%20Priory%202015.jpg,Frglrx,2016-09-07 14:21:27,2016,7,archaeological site; priory,-1.31047,54.3802,1301-01-01T00:00:00Z,East Harlsey,Yorkshire
Colstons Almshouses,http://commons.wikimedia.org/wiki/Special:FilePath/Colstonsalmshouse.jpg,Angusmclellan,2008-09-14 12:43:35,2008,14,almshouse,-2.59861,51.4578,1691-01-01T00:00:00Z,City of Bristol,Gloucestershire
Trewithen House,http://commons.wikimedia.org/wiki/Special:FilePath/Trewithen%20House.jpg,ElzbietaBorgosz,2017-09-29 16:48:42,2017,29,English country house; house museum; country house,-4.93115,50.2906,N/A,Probus,Cornwall
Old Town Hall,http://commons.wikimedia.org/wiki/Special:FilePath/Carlisle%20Town%20Hall%202009.JPG,Chemical Engineer,2010-09-09 21:27:21,2010,9,town hall,-2.9358,54.8948,N/A,Carlisle,Cumberland
"Parish Church of Saint Nicholas, Studland",http://commons.wikimedia.org/wiki/Special:FilePath/Studland%20Parish%20Church.jpg,Wulfrunian1,2013-09-16 17:31:06,2013,16,church building,-1.94985,50.6423,1050-01-01T00:00:00Z,Studland,Dorset
Stable Buildings To South West Of Charlton House,http://commons.wikimedia.org/wiki/Special:FilePath/Charlton%20House%20Stable%20East.jpg,Simon Armstrong,2013-09-21 17:56:28,2013,21,stable,0.0370887,51.48,N/A,Royal Borough of Greenwich,Kent
Brancepeth Castle,http://commons.wikimedia.org/wiki/Special:FilePath/Brancepeth%20Castle.jpg,Angusmclellan,2008-09-03 19:13:23,2008,3,castle,-1.6544,54.7342,N/A,Brancepeth,County Durham
Parish Church of St Mary,http://commons.wikimedia.org/wiki/Special:FilePath/St%20Mary%27s%20Church%2C%20Sawston.JPG,Marvinthefish,2013-09-08 20:01:22,2013,8,church building,0.171464,52.1214,1180-01-01T00:00:00Z,Sawston,Cambridgeshire
Kelmscott Manor,http://commons.wikimedia.org/wiki/Special:FilePath/KelmscottManor1.JPG,File Upload Bot (Magnus Manske),2011-09-19 16:16:31,2011,19,English country house; house museum; independent museum,-1.6382,51.688,N/A,Kelmscott,Oxfordshire
Abbey Precinct Wall,http://commons.wikimedia.org/wiki/Special:FilePath/FORMER%20DOCK%20RETAINING%20WALLS%20TO%20MOAT%20AROUND%20JEWEL%20HOUSE%2C%20OLD%20PALACE%20YARD%20SW1%2011.JPG,YellowFratello,2013-09-21 18:16:43,2013,21,wall,-0.126462,51.498,N/A,City of Westminster,Middlesex
The North Front Of Grainger Market,http://commons.wikimedia.org/wiki/Special:FilePath/Grainger%20Market%2C%20North%20Front%2C%20Newcastle%20upon%20Tyne.jpg,AlixChaytor,2019-09-30 23:54:05,2019,30,architectural structure,-1.61454,54.9733,N/A,Newcastle upon Tyne,Northumberland
Old Shute House,http://commons.wikimedia.org/wiki/Special:FilePath/OldShuteHouseFromNE.jpg,Lobsterthermidor,2012-09-15 19:10:34,2012,15,English country house,-3.0615,50.7715,N/A,Shute,Devon
Dudley Castle,http://commons.wikimedia.org/wiki/Special:FilePath/Dudley%20Castle%20Courtyard%202%20%285511627203%29.jpg,File Upload Bot (Magnus Manske),2012-09-05 12:09:43,2012,5,castle; motte-and-bailey castle; archaeological site,-2.07963,52.5146,1070-01-01T00:00:00Z,Dudley,Staffordshire
"1, St Andrew Street",http://commons.wikimedia.org/wiki/Special:FilePath/1%20St%20Andrew%20St%2C%20Wells%202.JPG,Rodw,2013-09-11 13:50:53,2013,11,building,-2.64317,51.211,N/A,Wells,Somerset
3 Victoria Terrace,http://commons.wikimedia.org/wiki/Special:FilePath/3%20Victoria%20Terrace%202019%2C%20Beaumaris%2004.jpg,Braveheart,2019-09-30 20:11:51,2019,30,building,-4.09039,53.2632,N/A,Beaumaris,Anglesey
County Hall,http://commons.wikimedia.org/wiki/Special:FilePath/County%20Hall%20%281898%29%2C%20Wood%20Street%2C%20Wakefield.jpg,Jza84,2008-09-04 22:41:07,2008,4,historic building,-1.5025,53.6845,N/A,Wakefield,Yorkshire
Church of St Helen,http://commons.wikimedia.org/wiki/Special:FilePath/St%20Helen%27s%2C%20Bishopgate%2C%20Norwich.jpg,Mn~commonswiki,2006-09-12 00:59:18,2006,12,church building,1.30478,52.6328,1250-01-01T00:00:00Z,Norwich,Norfolk
Church of St Mark,http://commons.wikimedia.org/wiki/Special:FilePath/St%20Mark%27s%20Englefield.jpg,BabelStone,2013-09-05 22:01:07,2013,5,church building,-1.10377,51.4435,1250-01-01T00:00:00Z,Englefield,Berkshire
Woburn Abbey,http://commons.wikimedia.org/wiki/Special:FilePath/Woburn%20Abbey%20amidst%20its%20parkland.jpg,Stevekeiretsu,2017-09-08 22:31:30,2017,8,English country house; house museum,-0.596719,51.98295,1101-01-01T00:00:00Z,Woburn,Bedfordshire
Luscombe Castle,http://commons.wikimedia.org/wiki/Special:FilePath/Luscombe%20Castle.jpg,Geograph Update Bot,2017-09-17 12:58:45,2017,17,English country house,-3.4945,50.5815,1804-01-01T00:00:00Z,Dawlish,Devon
"St Matthew's Church, Langford",http://commons.wikimedia.org/wiki/Special:FilePath/Langford%20StMatthew%20SE.JPG,Motacilla,2013-09-08 11:32:51,2013,8,church building,-1.6407787,51.7209312,1050-01-01T00:00:00Z,Langford,Oxfordshire
